{"items":[{"id":"202333100000100391","nm":"부경대학교 10공학관","lat":35.1173955,"lng":129.0923084,"addr":"부산광역시 남구 신선로 365","isOpenAtNight":"N","hasBell":"Y","male":18,"female":21,"type":"개방화장실"},{"id":"202333100000100282","nm":"남구 치매안심센터 1층","lat":35.13515,"lng":129.08357,"addr":"부산광역시 남구 수영로 155(대연동)","isOpenAtNight":"N","hasBell":"N","male":1,"female":1,"type":"개방화장실"},{"id":"202333100000100216","nm":"평화공원","lat":35.125346,"lng":129.099555,"addr":"부산광역시 남구 신선로447번길 10 (대연동)","isOpenAtNight":"N","hasBell":"Y","male":2,"female":6,"type":"공중화장실"},{"id":"202333100000100215","nm":"문현3동행정복지센터","lat":35.13827,"lng":129.07169,"addr":"부산광역시 남구 고동골로4번길 7-18","isOpenAtNight":"N","hasBell":"N","male":1,"female":4,"type":"개방화장실"},{"id":"202333100000100222","nm":"황령산 봉수대","lat":35.156545,"lng":129.083955,"addr":"부산광역시 남구 황령산로 391-40 (대연동)","isOpenAtNight":"N","hasBell":"Y","male":1,"female":2,"type":"공중화장실"},{"id":"202333100000100152","nm":"우암동 체육공원","lat":35.128337,"lng":129.074221,"addr":"부산광역시 남구 동제당로 250, 우암동 체육공원 공중화장실 (우암동)","isOpenAtNight":"N","hasBell":"Y","male":1,"female":2,"type":"공중화장실"},{"id":"202333100000100285","nm":"문현노인복지관","lat":35.13813,"lng":129.07091,"addr":"부산광역시 남구 고동골로 11(문현동)","isOpenAtNight":"N","hasBell":"Y","male":8,"female":12,"type":"개방화장실"},{"id":"202333100000100252","nm":"분포문화체육센터","lat":35.13222,"lng":129.11525,"addr":"부산광역시 남구 분포로 97 (용호동, 분포문화체육센터)","isOpenAtNight":"N","hasBell":"N","male":4,"female":16,"type":"개방화장실"},{"id":"202333100000100292","nm":"부산문현동우체국(1층)","lat":35.13601,"lng":129.07339,"addr":"부산광역시 남구 수영로 56, 부산문현동우체국 (문현동)","isOpenAtNight":"N","hasBell":"N","male":1,"female":1,"type":"개방화장실"},{"id":"202333100000100228","nm":"황령산 벚꽃약수터","lat":35.148146,"lng":129.076313,"addr":"부산광역시 남구 진남로 274-27 (문현동)","isOpenAtNight":"N","hasBell":"Y","male":1,"female":2,"type":"공중화장실"},{"id":"202333100000100178","nm":"북부산세관","lat":35.11494,"lng":129.09416,"addr":"부산광역시 남구 신선로 325 (용당동, 용당세관)","isOpenAtNight":"N","hasBell":"N","male":2,"female":2,"type":"개방화장실"},{"id":"202333100000100289","nm":"금융단지주유소","lat":35.14377,"lng":129.06644,"addr":"부산광역시 남구 전포대로 75, 문현금융단지주유소 (문현동)","isOpenAtNight":"N","hasBell":"N","male":1,"female":1,"type":"개방화장실"},{"id":"202333100000100352","nm":"부경대학교 인문사회·경영관","lat":35.134032,"lng":129.1031735,"addr":"부산광역시 남구 용소로 45","isOpenAtNight":"N","hasBell":"Y","male":65,"female":39,"type":"개방화장실"},{"id":"202333100000100224","nm":"동명불원","lat":35.11993,"lng":129.10387,"addr":"부산광역시 남구 동명로 57","isOpenAtNight":"N","hasBell":"N","male":2,"female":5,"type":"개방화장실"},{"id":"202333100000100180","nm":"경인주유소","lat":35.12499,"lng":129.10052,"addr":"부산광역시 남구 신선로 448, 경인주유소에너지플라자 (용당동)","isOpenAtNight":"N","hasBell":"N","male":1,"female":21,"type":"개방화장실"},{"id":"202333100000100305","nm":"경성대부경대(동명대) 지하철역","lat":35.137585,"lng":129.100548,"addr":"부산광역시 남구 수영로 지하 324","isOpenAtNight":"N","hasBell":"Y","male":3,"female":5,"type":"개방화장실"},{"id":"202333100000100266","nm":"용당CY주유소","lat":35.12039,"lng":129.09831,"addr":"부산광역시 남구 신선로 392 (용당동, 용당LG주유소)","isOpenAtNight":"N","hasBell":"N","male":1,"female":2,"type":"개방화장실"},{"id":"202333100000100350","nm":"부경대학교 공학2관","lat":35.134032,"lng":129.1031735,"addr":"부산광역시 남구 용소로 45","isOpenAtNight":"N","hasBell":"Y","male":41,"female":102,"type":"개방화장실"},{"id":"202333100000100219","nm":"대연5동 체육공원","lat":35.140924,"lng":129.086828,"addr":"부산광역시 남구 못골번영로71번길 29, 대연5동 체육공원 공중화장실 (대연동)","isOpenAtNight":"N","hasBell":"Y","male":1,"female":1,"type":"공중화장실"},{"id":"202333100000100171","nm":"광진LPG충전소","lat":35.13483,"lng":129.08967,"addr":"부산광역시 남구 수영로 212 (대연동, 광진LPG충전소)","isOpenAtNight":"N","hasBell":"N","male":3,"female":1,"type":"개방화장실"},{"id":"202333100000100356","nm":"부경대학교 학술정보관","lat":35.134032,"lng":129.1031735,"addr":"부산광역시 남구 용소로 45","isOpenAtNight":"N","hasBell":"Y","male":29,"female":36,"type":"개방화장실"},{"id":"202333100000100230","nm":"황령산 문현약수터","lat":35.149138,"lng":129.080654,"addr":"부산광역시 남구 진남로232번길 53-49 (문현동)","isOpenAtNight":"N","hasBell":"Y","male":1,"female":1,"type":"공중화장실"},{"id":"202333100000100177","nm":"북항대교주유소","lat":35.11433,"lng":129.09596,"addr":"부산광역시 남구 신선로 316","isOpenAtNight":"N","hasBell":"N","male":1,"female":1,"type":"개방화장실"},{"id":"202333100000100359","nm":"부경대학교 자연과학1관","lat":35.134032,"lng":129.1031735,"addr":"부산광역시 남구 용소로 45","isOpenAtNight":"N","hasBell":"Y","male":33,"female":30,"type":"개방화장실"},{"id":"202333100000100318","nm":"부산박물관 동래관지하","lat":35.1295608,"lng":129.0940856,"addr":"부산광역시 남구 유엔평화로 63","isOpenAtNight":"N","hasBell":"N","male":1,"female":3,"type":"개방화장실"},{"id":"202333100000100355","nm":"부경대학교 환경해양관","lat":35.134032,"lng":129.1031735,"addr":"부산광역시 남구 용소로 45","isOpenAtNight":"N","hasBell":"Y","male":35,"female":59,"type":"개방화장실"},{"id":"202333100000100281","nm":"용호3동 마을건강센터","lat":35.11745,"lng":129.11414,"addr":"부산광역시 남구 동명로164번길 40, 1층","isOpenAtNight":"N","hasBell":"N","male":1,"female":1,"type":"개방화장실"},{"id":"202333100000100284","nm":"남구노인복지관","lat":35.13634,"lng":129.09324,"addr":"부산광역시 남구 못골로 97-10(대연동)","isOpenAtNight":"N","hasBell":"N","male":5,"female":10,"type":"개방화장실"},{"id":"202333100000100277","nm":"용호별빛공원","lat":35.13301,"lng":129.1202,"addr":"부산광역시 남구 분포로 66-40","isOpenAtNight":"N","hasBell":"Y","male":1,"female":4,"type":"공중화장실"},{"id":"202333100000100183","nm":"신선대 중턱","lat":35.103781,"lng":129.101306,"addr":"부산광역시 남구 신선대산복로174번길 78, 신선대유원지 중턱 공중화장실 (용당동)","isOpenAtNight":"N","hasBell":"Y","male":1,"female":2,"type":"공중화장실"},{"id":"202333100000100202","nm":"비치주유소","lat":35.12595,"lng":129.11041,"addr":"부산광역시 남구 용호로 60 (용호동, 비치주유소)","isOpenAtNight":"N","hasBell":"N","male":1,"female":2,"type":"개방화장실"},{"id":"202333100000100311","nm":"대연운전자 휴게소(남/녀)","lat":35.142368,"lng":129.085969,"addr":"부산광역시 남구 대연5동 산71-0번지","isOpenAtNight":"N","hasBell":"N","male":3,"female":5,"type":"개방화장실"},{"id":"202333100000100375","nm":"부경대학교 체육관","lat":35.134032,"lng":129.1031735,"addr":"부산광역시 남구 용소로 45","isOpenAtNight":"N","hasBell":"Y","male":2,"female":4,"type":"개방화장실"},{"id":"202333100000100227","nm":"문현4동 체육공원","lat":35.132298,"lng":129.071315,"addr":"부산광역시 남구 장고개로104번길 55-13, 문현4동 체육공원 공중화장실 (문현동)","isOpenAtNight":"N","hasBell":"Y","male":1,"female":2,"type":"공중화장실"},{"id":"202333100000100245","nm":"용당파출소 공중화장실","lat":35.12109,"lng":129.08656,"addr":"부산광역시 남구 신선로 318 (용당동, 용암순찰지구대)","isOpenAtNight":"N","hasBell":"N","male":1,"female":1,"type":"개방화장실"},{"id":"202333100000100246","nm":"용당동 복합청사","lat":35.12041,"lng":129.09851,"addr":"부산광역시 남구 신선로 396, 용당동복합청사 (용당동)","isOpenAtNight":"N","hasBell":"Y","male":3,"female":9,"type":"개방화장실"},{"id":"202333100000100381","nm":"부경대학교 직장어린이집","lat":35.134032,"lng":129.1031735,"addr":"부산광역시 남구 용소로 45","isOpenAtNight":"N","hasBell":"Y","male":1,"female":1,"type":"개방화장실"},{"id":"202333100000100223","nm":"황령산 바람고개","lat":35.150129,"lng":129.08357,"addr":"부산광역시 남구 황령대로319번가길 158-32 (대연동)","isOpenAtNight":"N","hasBell":"Y","male":1,"female":2,"type":"공중화장실"},{"id":"202333100000100330","nm":"대한통운컨테이너터미널","lat":35.11097,"lng":129.09751,"addr":"부산광역시 남구 신선로 294 (용당동)","isOpenAtNight":"N","hasBell":"N","male":4,"female":4,"type":"개방화장실"},{"id":"202333100000100307","nm":"못골(남구청) 지하철역","lat":35.134731,"lng":129.084415,"addr":"부산광역시 남구 수영로 지하 170","isOpenAtNight":"N","hasBell":"Y","male":4,"female":4,"type":"개방화장실"},{"id":"202333100000100325","nm":"부산박물관 보존관리동2층","lat":35.1295608,"lng":129.0940856,"addr":"부산광역시 남구 유엔평화로 63","isOpenAtNight":"N","hasBell":"N","male":1,"female":2,"type":"개방화장실"},{"id":"202333100000100319","nm":"부산박물관 부산관1층","lat":35.1295608,"lng":129.0940856,"addr":"부산광역시 남구 유엔평화로 63","isOpenAtNight":"N","hasBell":"N","male":4,"female":4,"type":"개방화장실"},{"id":"202333100000100316","nm":"부산지식산업센터 우암점 화장실","lat":35.121467,"lng":129.077383,"addr":"부산광역시 남구 신선로2","isOpenAtNight":"N","hasBell":"Y","male":12,"female":20,"type":"개방화장실"},{"id":"202333100000100386","nm":"부경대학교 창업보육센터","lat":35.1173955,"lng":129.0923084,"addr":"부산광역시 남구 신선로 365","isOpenAtNight":"N","hasBell":"Y","male":10,"female":10,"type":"개방화장실"},{"id":"202333100000100363","nm":"부경대학교 해양공동연구관","lat":35.134032,"lng":129.1031735,"addr":"부산광역시 남구 용소로 45","isOpenAtNight":"N","hasBell":"Y","male":25,"female":25,"type":"개방화장실"},{"id":"202333100000100255","nm":"남부운전면허시험장 기능장","lat":35.1277,"lng":129.10565,"addr":"부산광역시 남구 용호로 16 (용호동, 남부운전면허시험장)","isOpenAtNight":"N","hasBell":"N","male":7,"female":7,"type":"개방화장실"},{"id":"202333100000100254","nm":"남구실내빙상장","lat":35.10349,"lng":129.1105,"addr":"부산광역시 남구 백운포로 106 (용호동)","isOpenAtNight":"N","hasBell":"N","male":7,"female":8,"type":"개방화장실"},{"id":"202333100000100389","nm":"부경대학교 산학협력관","lat":35.1173955,"lng":129.0923084,"addr":"부산광역시 남구 신선로 365","isOpenAtNight":"N","hasBell":"Y","male":5,"female":7,"type":"개방화장실"},{"id":"202333100000100238","nm":"영웅주유소","lat":35.14677,"lng":129.09565,"addr":"부산광역시 남구 황령대로 346 (대연동, 영웅주유소)","isOpenAtNight":"N","hasBell":"N","male":1,"female":1,"type":"개방화장실"},{"id":"202333100000100269","nm":"우암주유소","lat":35.12514,"lng":129.07466,"addr":"부산광역시 남구 우암로 204","isOpenAtNight":"N","hasBell":"N","male":1,"female":1,"type":"개방화장실"},{"id":"202333100000100372","nm":"부경대학교 아름관","lat":35.134032,"lng":129.1031735,"addr":"부산광역시 남구 용소로 45","isOpenAtNight":"N","hasBell":"Y","male":9,"female":9,"type":"개방화장실"},{"id":"202333100000100208","nm":"남구보건소","lat":35.13619,"lng":129.08502,"addr":"부산광역시 남구 못골로 23 (대연동, 남구보건소)","isOpenAtNight":"N","hasBell":"N","male":9,"female":9,"type":"개방화장실"},{"id":"202333100000100322","nm":"부산박물관 부산관지하","lat":35.1295608,"lng":129.0940856,"addr":"부산광역시 남구 유엔평화로 63","isOpenAtNight":"N","hasBell":"N","male":2,"female":5,"type":"개방화장실"},{"id":"202333100000100398","nm":"부경대학교 3공학관","lat":35.1173955,"lng":129.0923084,"addr":"부산광역시 남구 신선로 365","isOpenAtNight":"N","hasBell":"Y","male":4,"female":4,"type":"개방화장실"},{"id":"202333100000100157","nm":"삼화주유소","lat":35.11869,"lng":129.08069,"addr":"부산광역시 남구 우암로 92 (감만동, 삼화주유소)","isOpenAtNight":"N","hasBell":"N","male":2,"female":0,"type":"개방화장실"},{"id":"202333100000100186","nm":"백운포체육공원(테니스장앞)","lat":35.10429,"lng":129.111141,"addr":"부산광역시 남구 백운포로 34, 백운포테니스장 입구 공중화장실 (용호동)","isOpenAtNight":"N","hasBell":"Y","male":1,"female":4,"type":"공중화장실"},{"id":"202333100000100383","nm":"부경대학교 테니스장관리동","lat":35.134032,"lng":129.1031735,"addr":"부산광역시 남구 용소로 45","isOpenAtNight":"N","hasBell":"Y","male":1,"female":2,"type":"개방화장실"},{"id":"202333100000100369","nm":"부경대학교 충무관","lat":35.134032,"lng":129.1031735,"addr":"부산광역시 남구 용소로 45","isOpenAtNight":"N","hasBell":"Y","male":15,"female":21,"type":"개방화장실"},{"id":"202333100000100376","nm":"부경대학교 대학극장","lat":35.134032,"lng":129.1031735,"addr":"부산광역시 남구 용소로 45","isOpenAtNight":"N","hasBell":"Y","male":6,"female":11,"type":"개방화장실"},{"id":"202333100000100158","nm":"팔성주유소","lat":35.13008,"lng":129.09103,"addr":"부산광역시 남구 유엔로 138","isOpenAtNight":"N","hasBell":"N","male":1,"female":2,"type":"개방화장실"},{"id":"202333100000100392","nm":"부경대학교 8공학관","lat":35.1173955,"lng":129.0923084,"addr":"부산광역시 남구 신선로 365","isOpenAtNight":"N","hasBell":"Y","male":6,"female":6,"type":"개방화장실"},{"id":"202333100000100404","nm":"부경대학교 학군단","lat":35.1173955,"lng":129.0923084,"addr":"부산광역시 남구 신선로 365","isOpenAtNight":"N","hasBell":"Y","male":4,"female":3,"type":"개방화장실"},{"id":"202333100000100320","nm":"부산박물관 부산관2층","lat":35.1295608,"lng":129.0940856,"addr":"부산광역시 남구 유엔평화로 63","isOpenAtNight":"N","hasBell":"N","male":4,"female":4,"type":"개방화장실"},{"id":"202333100000100354","nm":"부경대학교 미래관","lat":35.134032,"lng":129.1031735,"addr":"부산광역시 남구 용소로 45","isOpenAtNight":"N","hasBell":"Y","male":14,"female":43,"type":"개방화장실"},{"id":"202333100000100338","nm":"에저또 소극장","lat":35.13836,"lng":129.09733,"addr":"부산광역시 남구 수영로293번길 42, 지하1층 (대연동)","isOpenAtNight":"N","hasBell":"N","male":1,"female":1,"type":"개방화장실"},{"id":"202333100000100399","nm":"부경대학교 2공학관","lat":35.1173955,"lng":129.0923084,"addr":"부산광역시 남구 신선로 365","isOpenAtNight":"N","hasBell":"Y","male":2,"female":2,"type":"개방화장실"},{"id":"202333100000100334","nm":"부산남구문화원 2층","lat":35.1307,"lng":129.11221,"addr":"부산광역시 남구 신선로 566-2, 용호1동 현장민원실 2층 (용호동)","isOpenAtNight":"N","hasBell":"N","male":1,"female":2,"type":"개방화장실"},{"id":"202333100000100382","nm":"부경대학교 양어장관리사","lat":35.134032,"lng":129.1031735,"addr":"부산광역시 남구 용소로 45","isOpenAtNight":"N","hasBell":"Y","male":2,"female":1,"type":"개방화장실"},{"id":"202333100000100321","nm":"부산박물관 야외","lat":35.1295608,"lng":129.0940856,"addr":"부산광역시 남구 유엔평화로 63","isOpenAtNight":"N","hasBell":"N","male":2,"female":3,"type":"개방화장실"},{"id":"202333100000100327","nm":"환경공단남부사업소공원중앙광장","lat":35.1262,"lng":129.1149,"addr":"부산광역시 남구 이기대공원로11","isOpenAtNight":"N","hasBell":"Y","male":4,"female":4,"type":"개방화장실"},{"id":"202333100000100218","nm":"유엔기념공원주차장","lat":35.127172,"lng":129.095864,"addr":"부산광역시 남구 유엔평화로 93, 유엔기념공원 (대연동)","isOpenAtNight":"N","hasBell":"Y","male":2,"female":2,"type":"공중화장실"},{"id":"202333100000100161","nm":"광안대교주유소(구 용연주유소)","lat":35.13002,"lng":129.0984,"addr":"부산광역시 남구 유엔로 202 (대연동, 용연주유소)","isOpenAtNight":"N","hasBell":"N","male":1,"female":2,"type":"개방화장실"},{"id":"202333100000100203","nm":"용호3치안센터","lat":35.11809,"lng":129.11247,"addr":"부산광역시 남구 용호로159번길 15 (용호동, 용호3치안센터)","isOpenAtNight":"N","hasBell":"N","male":2,"female":0,"type":"개방화장실"},{"id":"202333100000100212","nm":"문현4동 주민복합센터","lat":35.13233,"lng":129.06992,"addr":"부산광역시 남구 장고개로 79","isOpenAtNight":"N","hasBell":"N","male":3,"female":3,"type":"개방화장실"},{"id":"202333100000100302","nm":"부산문화회관 사랑채","lat":35.1278979,"lng":129.0936366,"addr":"부산광역시 남구 유엔평화로 76번길 1","isOpenAtNight":"N","hasBell":"N","male":1,"female":2,"type":"개방화장실"},{"id":"202333100000100400","nm":"부경대학교 1공학관","lat":35.1173955,"lng":129.0923084,"addr":"부산광역시 남구 신선로 365","isOpenAtNight":"N","hasBell":"Y","male":3,"female":3,"type":"개방화장실"},{"id":"202333100000100364","nm":"부경대학교 건축관","lat":35.134032,"lng":129.1031735,"addr":"부산광역시 남구 용소로 45","isOpenAtNight":"N","hasBell":"Y","male":20,"female":20,"type":"개방화장실"},{"id":"202333100000100179","nm":"(주)세일부산항주유소","lat":35.12045,"lng":129.09749,"addr":"부산광역시 남구 신선로 387","isOpenAtNight":"N","hasBell":"N","male":1,"female":2,"type":"개방화장실"},{"id":"202333100000100390","nm":"부경대학교 9공학관","lat":35.1173955,"lng":129.0923084,"addr":"부산광역시 남구 신선로 365","isOpenAtNight":"N","hasBell":"Y","male":4,"female":4,"type":"개방화장실"},{"id":"202333100000100173","nm":"21센츄리 상가","lat":35.13759,"lng":129.10092,"addr":"부산광역시 남구 수영로 312 (대연동, 21 센츄리시티 오피스텔)","isOpenAtNight":"N","hasBell":"N","male":6,"female":6,"type":"개방화장실"},{"id":"202333100000100298","nm":"부산문화회관 중극장","lat":35.1269388,"lng":129.0942594,"addr":"부산광역시 남구 유엔평화로 76번길 1","isOpenAtNight":"N","hasBell":"N","male":15,"female":30,"type":"개방화장실"},{"id":"202333100000100370","nm":"부경대학교 청운관","lat":35.134032,"lng":129.1031735,"addr":"부산광역시 남구 용소로 45","isOpenAtNight":"N","hasBell":"Y","male":14,"female":24,"type":"개방화장실"},{"id":"202333100000100206","nm":"남부교육지원청","lat":35.1363,"lng":129.08546,"addr":"부산광역시 남구 못골로 29","isOpenAtNight":"N","hasBell":"N","male":4,"female":6,"type":"개방화장실"},{"id":"202333100000100342","nm":"드림씨어터 1층 가족화장실","lat":35.14856,"lng":129.06543,"addr":"부산광역시 남구 전포대로 133 (문현동)","isOpenAtNight":"N","hasBell":"N","male":3,"female":3,"type":"개방화장실"},{"id":"202333100000100262","nm":"못골파출소 공중화장실","lat":35.1398,"lng":129.09004,"addr":"부산광역시 남구 진남로46번길 37 (대연동, 못골치안센터)","isOpenAtNight":"N","hasBell":"N","male":0,"female":0,"type":"개방화장실"},{"id":"202333100000100174","nm":"대연지구대 공중화장실","lat":35.13809,"lng":129.10186,"addr":"부산광역시 남구 수영로 328 (대연동, 부산남부경찰서 대연지구대)","isOpenAtNight":"N","hasBell":"N","male":1,"female":1,"type":"개방화장실"},{"id":"202333100000100317","nm":"부산박물관 동래관1층","lat":35.1295608,"lng":129.0940856,"addr":"부산광역시 남구 유엔평화로 63","isOpenAtNight":"N","hasBell":"N","male":2,"female":3,"type":"개방화장실"},{"id":"202333100000100394","nm":"부경대학교 6공학관","lat":35.1173955,"lng":129.0923084,"addr":"부산광역시 남구 신선로 365","isOpenAtNight":"N","hasBell":"Y","male":4,"female":2,"type":"개방화장실"},{"id":"202333100000100345","nm":"드림씨어터 2층 장애인화장실","lat":35.14856,"lng":129.06543,"addr":"부산광역시 남구 전포대로 133 (문현동)","isOpenAtNight":"N","hasBell":"Y","male":0,"female":0,"type":"개방화장실"},{"id":"202333100000100291","nm":"우암로셀프주유소","lat":35.12556,"lng":129.07151,"addr":"부산광역시 남구 우암로 232, 명성주유소 (우암동)","isOpenAtNight":"N","hasBell":"N","male":1,"female":1,"type":"개방화장실"},{"id":"202333100000100205","nm":"대연1치안센터","lat":35.13411,"lng":129.09555,"addr":"부산광역시 남구 유엔평화로13번길 63 (대연동, 대연치안센터)","isOpenAtNight":"N","hasBell":"N","male":1,"female":0,"type":"개방화장실"},{"id":"202333100000100197","nm":"유선정 체육공원","lat":35.109595,"lng":129.106931,"addr":"부산광역시 남구 신선대산복로 135 (용호동)","isOpenAtNight":"N","hasBell":"Y","male":1,"female":2,"type":"공중화장실"},{"id":"202333100000100153","nm":"용호1치안센터","lat":35.12572,"lng":129.10951,"addr":"부산광역시 남구 용호로42번길 27 (용호동, 용호1치안센터)","isOpenAtNight":"N","hasBell":"N","male":1,"female":1,"type":"개방화장실"},{"id":"202333100000100249","nm":"감만종합사회복지관","lat":35.11847,"lng":129.08159,"addr":"부산광역시 남구 우암로84-1","isOpenAtNight":"N","hasBell":"N","male":3,"female":5,"type":"개방화장실"},{"id":"202333100000100271","nm":"우암파출소 공중화장실","lat":35.1248,"lng":129.07815,"addr":"부산광역시 남구 우암로 170 (우암동, 우암치안센터)","isOpenAtNight":"N","hasBell":"N","male":1,"female":1,"type":"개방화장실"},{"id":"202333100000100304","nm":"부산문화회관 부설주차장","lat":35.1260629,"lng":129.0928445,"addr":"부산광역시 남구 유엔평화로 76번길 60","isOpenAtNight":"N","hasBell":"N","male":4,"female":4,"type":"개방화장실"},{"id":"202333100000100326","nm":"부산환경공단 남부사업소 정문","lat":35.1249,"lng":129.114,"addr":"부산광역시 남구 이기대공원로11","isOpenAtNight":"N","hasBell":"N","male":2,"female":3,"type":"개방화장실"},{"id":"202333100000100156","nm":"감만파출소 공중화장실","lat":35.11839,"lng":129.08077,"addr":"부산광역시 남구 우암로 86 (감만동, 감만파출소)","isOpenAtNight":"N","hasBell":"N","male":1,"female":1,"type":"개방화장실"},{"id":"202333100000100340","nm":"초콜릿팩토리","lat":35.1368,"lng":129.099,"addr":"부산광역시 남구 수영로 298, 산암빌딩 지하층 (대연동)","isOpenAtNight":"N","hasBell":"N","male":2,"female":2,"type":"개방화장실"},{"id":"202333100000100290","nm":"용당터미널주유소","lat":35.11052,"lng":129.09227,"addr":"부산광역시 남구 신선로 252 (용당동)","isOpenAtNight":"N","hasBell":"N","male":1,"female":2,"type":"개방화장실"},{"id":"202333100000100385","nm":"부경대학교 공학관(행정관)","lat":35.1173955,"lng":129.0923084,"addr":"부산광역시 남구 신선로 365","isOpenAtNight":"N","hasBell":"Y","male":9,"female":9,"type":"개방화장실"},{"id":"202333100000100244","nm":"내트럭부산용당사업소주유소","lat":35.11219,"lng":129.09372,"addr":"부산광역시 남구 신선로 261 (용당동, 부산 용당 화물차 휴게소)","isOpenAtNight":"N","hasBell":"N","male":1,"female":2,"type":"개방화장실"},{"id":"202333100000100192","nm":"장자산체육공원","lat":35.123586,"lng":129.119245,"addr":"부산광역시 남구 이기대공원로 11 (용호동)","isOpenAtNight":"N","hasBell":"Y","male":1,"female":1,"type":"공중화장실"},{"id":"202333100000100221","nm":"황령산 편백단지","lat":35.156545,"lng":129.083998,"addr":"부산광역시 남구 황령대로319번가길 118 (대연동)","isOpenAtNight":"N","hasBell":"Y","male":1,"female":2,"type":"공중화장실"},{"id":"202333100000100287","nm":"문현2동행정복지센터","lat":35.14551,"lng":129.06864,"addr":"부산광역시 남구 전포대로92번길 31-7","isOpenAtNight":"N","hasBell":"N","male":1,"female":2,"type":"개방화장실"},{"id":"202333100000100170","nm":"문현4동행정복지센터","lat":35.13636,"lng":129.06903,"addr":"부산광역시 남구 수영로 12 (문현동, 세종그랑시아아파트)","isOpenAtNight":"N","hasBell":"N","male":1,"female":2,"type":"개방화장실"},{"id":"202333100000100401","nm":"부경대학교 학생회관","lat":35.1173955,"lng":129.0923084,"addr":"부산광역시 남구 신선로 365","isOpenAtNight":"N","hasBell":"Y","male":4,"female":4,"type":"개방화장실"},{"id":"202333100000100265","nm":"용당119안전센터","lat":35.12082,"lng":129.09863,"addr":"부산광역시 남구 신선로 398 (용당동, 용당119안전센터)","isOpenAtNight":"N","hasBell":"N","male":4,"female":0,"type":"개방화장실"},{"id":"202333100000100196","nm":"용호1동 체육공원","lat":35.121331,"lng":129.105992,"addr":"부산광역시 남구 동명로101번길 37-13 (용호동)","isOpenAtNight":"N","hasBell":"N","male":1,"female":2,"type":"공중화장실"},{"id":"202333100000100217","nm":"유엔조각공원","lat":35.12929,"lng":129.098055,"addr":"부산광역시 남구 유엔평화로 93, 유엔기념공원 (대연동)","isOpenAtNight":"N","hasBell":"Y","male":4,"female":7,"type":"공중화장실"},{"id":"202333100000100314","nm":"대연수목전시원 화장실","lat":35.125,"lng":129.098,"addr":"부산광역시 남구 신선로 447번길 24","isOpenAtNight":"N","hasBell":"Y","male":1,"female":3,"type":"개방화장실"},{"id":"202333100000100346","nm":"드림씨어터 3층 화장실","lat":35.14856,"lng":129.06543,"addr":"부산광역시 남구 전포대로 133 (문현동)","isOpenAtNight":"N","hasBell":"N","male":3,"female":6,"type":"개방화장실"},{"id":"202333100000100279","nm":"남구도서관","lat":35.1376985,"lng":129.0923943,"addr":"부산광역시 남구 수영로267번길 61(대연동, 남구도서관)","isOpenAtNight":"N","hasBell":"N","male":14,"female":14,"type":"개방화장실"},{"id":"202333100000100194","nm":"이기대공원(매점옆등산로)","lat":35.122006,"lng":129.124162,"addr":"부산광역시 남구 이기대공원로 105-19, 이기대공원매점옆 공중화장실 (용호동)[*미고시]","isOpenAtNight":"N","hasBell":"Y","male":1,"female":2,"type":"공중화장실"},{"id":"202333100000100200","nm":"부산용호동우체국(1층)","lat":35.11767,"lng":129.11165,"addr":"부산광역시 남구 용호로 163 (용호동, 부산용호동우체국)","isOpenAtNight":"N","hasBell":"N","male":1,"female":1,"type":"개방화장실"},{"id":"202333100000100198","nm":"이기대공원(큰고개쉼터)","lat":35.113161,"lng":129.122315,"addr":"부산광역시 남구 이기대공원로 269, 이기대공원큰고개쉼터 공중화장실 (용호동)[*미고시]","isOpenAtNight":"N","hasBell":"Y","male":1,"female":3,"type":"공중화장실"},{"id":"202333100000100344","nm":"드림씨어터 2층 화장실","lat":35.14856,"lng":129.06543,"addr":"부산광역시 남구 전포대로 133 (문현동)","isOpenAtNight":"N","hasBell":"N","male":3,"female":6,"type":"개방화장실"},{"id":"202333100000100243","nm":"한국산업인력공단부산남부지사","lat":35.12542,"lng":129.10133,"addr":"부산광역시 남구 신선로 454-18 (용당동)","isOpenAtNight":"N","hasBell":"N","male":12,"female":24,"type":"개방화장실"},{"id":"202333100000100191","nm":"용호2동 체육공원","lat":35.112942,"lng":129.11715,"addr":"부산광역시 남구 용호로231번길 128-48, 용호2동 체육공원 공중화장실 (용호동)","isOpenAtNight":"N","hasBell":"Y","male":1,"female":2,"type":"공중화장실"},{"id":"202333100000100278","nm":"문현2치안센터","lat":35.14618,"lng":129.06714,"addr":"부산광역시 남구 전포대로 104 (문현동, 문현2치안센터)","isOpenAtNight":"N","hasBell":"N","male":1,"female":0,"type":"개방화장실"},{"id":"202333100000100361","nm":"부경대학교 나래관","lat":35.134032,"lng":129.1031735,"addr":"부산광역시 남구 용소로 45","isOpenAtNight":"N","hasBell":"Y","male":23,"female":18,"type":"개방화장실"},{"id":"202333100000100267","nm":"은마주유소","lat":35.11778,"lng":129.09536,"addr":"부산광역시 남구 신선로 351 (용당동, 은마주유소)","isOpenAtNight":"N","hasBell":"N","male":2,"female":2,"type":"개방화장실"},{"id":"202333100000100337","nm":"하늘바람소극장","lat":35.13669,"lng":129.10225,"addr":"부산광역시 남구 용소로13번길 17, 7층 (대연동)","isOpenAtNight":"N","hasBell":"N","male":1,"female":1,"type":"개방화장실"},{"id":"202333100000100366","nm":"부경대학교 자연과학2관","lat":35.134032,"lng":129.1031735,"addr":"부산광역시 남구 용소로 45","isOpenAtNight":"N","hasBell":"Y","male":27,"female":23,"type":"개방화장실"},{"id":"202333100000100384","nm":"부경대학교 한미르관","lat":35.134032,"lng":129.1031735,"addr":"부산광역시 남구 용소로 45","isOpenAtNight":"N","hasBell":"Y","male":39,"female":43,"type":"개방화장실"},{"id":"202333100000100339","nm":"나다소극장","lat":35.13658,"lng":129.10081,"addr":"부산광역시 남구 용소로40번길 11, 청해빌딩 지하층 (대연동)","isOpenAtNight":"N","hasBell":"N","male":1,"female":1,"type":"개방화장실"},{"id":"202333100000100348","nm":"부경대학교 수상레저관","lat":35.134032,"lng":129.1031735,"addr":"부산광역시 남구 용소로 45","isOpenAtNight":"N","hasBell":"Y","male":13,"female":28,"type":"개방화장실"},{"id":"202333100000100220","nm":"우룡산공원","lat":35.131481,"lng":129.081294,"addr":"부산광역시 남구 신정번영로31번길 26-40, 우룡산평화공원 공중화장실 (대연동)","isOpenAtNight":"N","hasBell":"N","male":1,"female":2,"type":"공중화장실"},{"id":"202333100000100241","nm":"부산남부경찰서 공중화장실","lat":35.15314,"lng":129.08963,"addr":"부산광역시 남구 황령대로319번가길 81","isOpenAtNight":"N","hasBell":"N","male":5,"female":7,"type":"개방화장실"},{"id":"202333100000100229","nm":"문현1동 체육공원","lat":35.147124,"lng":129.08077,"addr":"부산광역시 남구 진남로198번길 77-15 (문현동)","isOpenAtNight":"N","hasBell":"Y","male":1,"female":2,"type":"공중화장실"},{"id":"202333100000100362","nm":"부경대학교 장영실관","lat":35.134032,"lng":129.1031735,"addr":"부산광역시 남구 용소로 45","isOpenAtNight":"N","hasBell":"Y","male":19,"female":17,"type":"개방화장실"},{"id":"202333100000100225","nm":"대연6동행정복지센터","lat":35.13745,"lng":129.0832,"addr":"부산광역시 남구 못골로 13","isOpenAtNight":"N","hasBell":"Y","male":12,"female":12,"type":"개방화장실"},{"id":"202333100000100358","nm":"부경대학교 수산과학관","lat":35.134032,"lng":129.1031735,"addr":"부산광역시 남구 용소로 45","isOpenAtNight":"N","hasBell":"Y","male":20,"female":29,"type":"개방화장실"},{"id":"202333100000100313","nm":"부산광역시 여성회관 화장실","lat":35.13913034,"lng":129.1045446,"addr":"부산광역시 남구 수영로 356","isOpenAtNight":"N","hasBell":"N","male":9,"female":27,"type":"개방화장실"},{"id":"202333100000100190","nm":"용호동 섶자리","lat":35.129284,"lng":129.117371,"addr":"부산광역시 남구 섶자리길 111, 용호동 섶자리 공중화장실 (용호동)","isOpenAtNight":"N","hasBell":"Y","male":0,"female":2,"type":"공중화장실"},{"id":"202333100000100396","nm":"부경대학교 5공학관","lat":35.1173955,"lng":129.0923084,"addr":"부산광역시 남구 신선로 365","isOpenAtNight":"N","hasBell":"Y","male":8,"female":8,"type":"개방화장실"},{"id":"202333100000100199","nm":"분포셀프주유소","lat":35.12226,"lng":129.11198,"addr":"부산광역시 남구 용호로 116","isOpenAtNight":"N","hasBell":"N","male":1,"female":2,"type":"개방화장실"},{"id":"202333100000100154","nm":"문현주유소","lat":35.13548,"lng":129.06798,"addr":"부산광역시 남구 우암로 374 (문현동, 문현주유소)","isOpenAtNight":"N","hasBell":"N","male":2,"female":0,"type":"개방화장실"},{"id":"202333100000100195","nm":"이기대공원(옛관리초소 입구)","lat":35.122673,"lng":129.122445,"addr":"부산광역시 남구 이기대공원로 105, 이기대공원관리초소입구 공중화장실 (용호동)","isOpenAtNight":"N","hasBell":"Y","male":1,"female":3,"type":"공중화장실"},{"id":"202333100000100268","nm":"용당세관 공중화장실","lat":35.11492,"lng":129.09422,"addr":"부산광역시 남구 신선로 325 (용당동, 용당세관)","isOpenAtNight":"N","hasBell":"N","male":1,"female":2,"type":"개방화장실"},{"id":"202333100000100280","nm":"유엔평화기념관 1층 야외","lat":35.124894,"lng":129.093482,"addr":"부산광역시 남구 홍곡로 320번길 106 (대연동, UN평화기념관)","isOpenAtNight":"N","hasBell":"N","male":1,"female":2,"type":"개방화장실"},{"id":"202333100000100331","nm":"대연3동행정복지센터","lat":35.14009,"lng":129.10397,"addr":"부산광역시 남구 수영로 345 (대연동, 대연힐스테이트푸르지오)","isOpenAtNight":"N","hasBell":"N","male":2,"female":3,"type":"개방화장실"},{"id":"202333100000100182","nm":"문수사 입구","lat":35.122245,"lng":129.091656,"addr":"부산광역시 남구 홍곡로336번길 41 (용당동)","isOpenAtNight":"N","hasBell":"Y","male":2,"female":5,"type":"공중화장실"},{"id":"202333100000100371","nm":"부경대학교 동원장보고관","lat":35.134032,"lng":129.1031735,"addr":"부산광역시 남구 용소로 45","isOpenAtNight":"N","hasBell":"Y","male":11,"female":16,"type":"개방화장실"},{"id":"202333100000100181","nm":"부산분포우체국(1층)","lat":35.13084,"lng":129.1119,"addr":"부산광역시 남구 신선로 566-1 (용호동, 부산분포우체국)","isOpenAtNight":"N","hasBell":"N","male":1,"female":1,"type":"개방화장실"},{"id":"202333100000100160","nm":"문화주유소","lat":35.13052,"lng":129.09305,"addr":"부산광역시 남구 유엔로 155 (대연동, 문화주유소)","isOpenAtNight":"N","hasBell":"N","male":1,"female":1,"type":"개방화장실"},{"id":"202333100000100388","nm":"부경대학교 종합복지관","lat":35.1173955,"lng":129.0923084,"addr":"부산광역시 남구 신선로 365","isOpenAtNight":"N","hasBell":"Y","male":9,"female":9,"type":"개방화장실"},{"id":"202333100000100402","nm":"부경대학교 교양관","lat":35.1173955,"lng":129.0923084,"addr":"부산광역시 남구 신선로 365","isOpenAtNight":"N","hasBell":"Y","male":15,"female":15,"type":"개방화장실"},{"id":"202333100000100163","nm":"성지셀프주유소","lat":35.12717,"lng":129.08154,"addr":"부산광역시 남구 유엔로 42 (우암동, 성지주유소)","isOpenAtNight":"N","hasBell":"N","male":1,"female":1,"type":"개방화장실"},{"id":"202333100000100297","nm":"부산문화회관 다듬채","lat":35.1267636,"lng":129.0929446,"addr":"부산광역시 남구 유엔평화로 76번길 1","isOpenAtNight":"N","hasBell":"N","male":2,"female":3,"type":"개방화장실"},{"id":"202333100000100248","nm":"남구종합사회복지관","lat":35.12746,"lng":129.07448,"addr":"부산광역시 남구 동제당로 258","isOpenAtNight":"N","hasBell":"N","male":5,"female":2,"type":"개방화장실"},{"id":"202333100000100166","nm":"굿오일주유소","lat":35.10908,"lng":129.08204,"addr":"부산광역시 남구 북항로 108 (감만동)","isOpenAtNight":"N","hasBell":"N","male":1,"female":1,"type":"개방화장실"},{"id":"202333100000100253","nm":"남구 국민체육센터","lat":35.104,"lng":129.10837,"addr":"부산광역시 남구 백운포로 110 (용호동, 남구국민체육센터)","isOpenAtNight":"N","hasBell":"N","male":8,"female":18,"type":"개방화장실"},{"id":"202333100000100378","nm":"부경대학교 한울관","lat":35.134032,"lng":129.1031735,"addr":"부산광역시 남구 용소로 45","isOpenAtNight":"N","hasBell":"Y","male":2,"female":2,"type":"개방화장실"},{"id":"202333100000100211","nm":"문현1동 행정복지센터","lat":35.14265,"lng":129.07144,"addr":"부산광역시 남구 고동골로60번길 1","isOpenAtNight":"N","hasBell":"N","male":2,"female":1,"type":"개방화장실"},{"id":"202333100000100365","nm":"부경대학교 호연관","lat":35.134032,"lng":129.1031735,"addr":"부산광역시 남구 용소로 45","isOpenAtNight":"N","hasBell":"Y","male":28,"female":34,"type":"개방화장실"},{"id":"202333100000100261","nm":"대연5동행정복지센터","lat":35.13866,"lng":129.09015,"addr":"부산광역시 남구 진남로46번길 7 (대연동, 대연5동주민센터)","isOpenAtNight":"N","hasBell":"N","male":2,"female":2,"type":"개방화장실"},{"id":"202333100000100295","nm":"부산문화회관 전시실","lat":35.1273138,"lng":129.093468,"addr":"부산광역시 남구 유엔평화로 76번길 1","isOpenAtNight":"N","hasBell":"N","male":2,"female":3,"type":"개방화장실"},{"id":"202333100000100323","nm":"부산박물관 부산관장애인화장실","lat":35.1295608,"lng":129.0940856,"addr":"부산광역시 남구 유엔평화로 63","isOpenAtNight":"N","hasBell":"N","male":0,"female":0,"type":"개방화장실"},{"id":"202333100000100351","nm":"부경대학교 공학1관","lat":35.134032,"lng":129.1031735,"addr":"부산광역시 남구 용소로 45","isOpenAtNight":"N","hasBell":"Y","male":39,"female":91,"type":"개방화장실"},{"id":"202333100000100201","nm":"구도일주유소용호","lat":35.11731,"lng":129.11093,"addr":"부산광역시 남구 용호로 172","isOpenAtNight":"N","hasBell":"N","male":1,"female":1,"type":"개방화장실"},{"id":"202333100000100336","nm":"가람아트홀","lat":35.12785,"lng":129.09274,"addr":"부산광역시 남구 유엔평화로76번길 26, 가람빌딩 지하1층 (대연동)","isOpenAtNight":"N","hasBell":"N","male":2,"female":2,"type":"개방화장실"},{"id":"202333100000100251","nm":"해파랑길관광안내소장애인화장실","lat":35.1015,"lng":129.12311,"addr":"부산광역시 남구 오륙도로 137 (용호동, 해파랑길 관광안내소)","isOpenAtNight":"N","hasBell":"N","male":1,"female":1,"type":"개방화장실"},{"id":"202333100000100343","nm":"드림씨어터 1층 장애인화장실","lat":35.14856,"lng":129.06543,"addr":"부산광역시 남구 전포대로 133 (문현동)","isOpenAtNight":"N","hasBell":"Y","male":0,"female":0,"type":"개방화장실"},{"id":"202333100000100380","nm":"부경대학교 수조실험동","lat":35.134032,"lng":129.1031735,"addr":"부산광역시 남구 용소로 45","isOpenAtNight":"N","hasBell":"Y","male":2,"female":2,"type":"개방화장실"},{"id":"202333100000100176","nm":"인터지스 주유소","lat":35.11106,"lng":129.0838,"addr":"부산광역시 남구 신선로 173 (감만동)","isOpenAtNight":"N","hasBell":"N","male":1,"female":2,"type":"개방화장실"},{"id":"202333100000100332","nm":"대동골문화센터 2층","lat":35.15243,"lng":129.08899,"addr":"부산광역시 남구 황령대로319번가길 147 (대연동)","isOpenAtNight":"N","hasBell":"N","male":1,"female":2,"type":"개방화장실"},{"id":"202333100000100207","nm":"용호2동 복합청사","lat":35.11502,"lng":129.1134,"addr":"부산광역시 남구 용주로 12 (용호동)","isOpenAtNight":"N","hasBell":"N","male":5,"female":10,"type":"개방화장실"},{"id":"202333100000100333","nm":"대동골문화센터 3층","lat":35.15243,"lng":129.08899,"addr":"부산광역시 남구 황령대로319번가길 147 (대연동)","isOpenAtNight":"N","hasBell":"N","male":1,"female":3,"type":"개방화장실"},{"id":"202333100000100341","nm":"드림씨어터 1층 화장실","lat":35.14856,"lng":129.06543,"addr":"부산광역시 남구 전포대로 133 (문현동)","isOpenAtNight":"N","hasBell":"N","male":4,"female":36,"type":"개방화장실"},{"id":"202333100000100360","nm":"부경대학교 향파관","lat":35.134032,"lng":129.1031735,"addr":"부산광역시 남구 용소로 45","isOpenAtNight":"N","hasBell":"Y","male":19,"female":43,"type":"개방화장실"},{"id":"202333100000100379","nm":"부경대학교 수산질병관리원","lat":35.134032,"lng":129.1031735,"addr":"부산광역시 남구 용소로 45","isOpenAtNight":"N","hasBell":"Y","male":2,"female":2,"type":"개방화장실"},{"id":"202333100000100256","nm":"남부운전면허시험장 별관","lat":35.1277,"lng":129.10565,"addr":"부산광역시 남구 용호로 16 (용호동, 남부운전면허시험장)","isOpenAtNight":"N","hasBell":"N","male":9,"female":10,"type":"개방화장실"},{"id":"202333100000100288","nm":"동명주유소","lat":35.15602,"lng":129.06598,"addr":"부산광역시 남구 전포대로 7 (문현동, 동명주유소)","isOpenAtNight":"N","hasBell":"N","male":1,"female":0,"type":"개방화장실"},{"id":"202333100000100357","nm":"부경대학교 대학본부","lat":35.134032,"lng":129.1031735,"addr":"부산광역시 남구 용소로 45","isOpenAtNight":"N","hasBell":"Y","male":13,"female":24,"type":"개방화장실"},{"id":"202333100000100328","nm":"환경공단남부사업소그라운드골프","lat":35.1275,"lng":129.1173,"addr":"부산광역시 남구 이기대공원로11","isOpenAtNight":"N","hasBell":"N","male":1,"female":3,"type":"개방화장실"},{"id":"202333100000100235","nm":"일제강제동원역사관 주차장","lat":35.12523,"lng":129.09241,"addr":"부산광역시 남구 홍곡로320번길 100","isOpenAtNight":"N","hasBell":"N","male":2,"female":2,"type":"개방화장실"},{"id":"202333100000100226","nm":"부산 남구청","lat":35.13657,"lng":129.08437,"addr":"부산광역시 남구 못골로 19 (대연동, 남구청)","isOpenAtNight":"N","hasBell":"Y","male":38,"female":68,"type":"개방화장실"},{"id":"202333100000100234","nm":"일제강제동원역사관 본관","lat":35.12523,"lng":129.09241,"addr":"부산광역시 남구 홍곡로320번길 100","isOpenAtNight":"N","hasBell":"Y","male":11,"female":26,"type":"개방화장실"},{"id":"202333100000100209","nm":"용호3동행정복지센터","lat":35.12112,"lng":129.11278,"addr":"부산광역시 남구 동명로145번길 33","isOpenAtNight":"N","hasBell":"N","male":3,"female":1,"type":"개방화장실"},{"id":"202333100000100204","nm":"부산시립박물관 외부화장실","lat":35.1297,"lng":129.09382,"addr":"부산광역시 남구 유엔평화로 63 (대연동, 부산박물관)","isOpenAtNight":"N","hasBell":"N","male":3,"female":3,"type":"개방화장실"},{"id":"202333100000100237","nm":"사랑드림 주유소","lat":35.14755,"lng":129.09579,"addr":"부산광역시 남구 황령대로 343 (대연동, 용소주유소)","isOpenAtNight":"N","hasBell":"N","male":1,"female":1,"type":"개방화장실"},{"id":"202333100000100310","nm":"국제금융센터,부산은행 지하철역","lat":35.145817,"lng":129.066755,"addr":"부산광역시 남구 전포대로 지하 97","isOpenAtNight":"N","hasBell":"Y","male":5,"female":5,"type":"개방화장실"},{"id":"202333100000100213","nm":"감만2동행정복지센터","lat":35.12264,"lng":129.08456,"addr":"부산광역시 남구 석포로 32-1","isOpenAtNight":"N","hasBell":"N","male":2,"female":1,"type":"개방화장실"},{"id":"202333100000100165","nm":"부산시립박물관 제2전시관","lat":35.1297,"lng":129.09372,"addr":"부산광역시 남구 유엔평화로 63 (대연동, 부산박물관)","isOpenAtNight":"N","hasBell":"N","male":10,"female":11,"type":"개방화장실"},{"id":"202333100000100293","nm":"부산문화회관 대극장","lat":35.1273138,"lng":129.093468,"addr":"부산광역시 남구 유엔평화로 76번길 1","isOpenAtNight":"N","hasBell":"N","male":16,"female":49,"type":"개방화장실"},{"id":"202333100000100258","nm":"부산감만동우체국(1층)","lat":35.11826,"lng":129.08094,"addr":"부산광역시 남구 우암로 84","isOpenAtNight":"N","hasBell":"N","male":1,"female":0,"type":"개방화장실"},{"id":"202333100000100300","nm":"부산문화회관 챔버홀","lat":35.1278979,"lng":129.0936366,"addr":"부산광역시 남구 유엔평화로 76번길 1","isOpenAtNight":"N","hasBell":"N","male":7,"female":7,"type":"개방화장실"},{"id":"202333100000100155","nm":"감만1동행정복지센터","lat":35.11692,"lng":129.08071,"addr":"부산광역시 남구 우암로 71-7 (감만동, 감만1동주민센터)","isOpenAtNight":"N","hasBell":"N","male":2,"female":2,"type":"개방화장실"},{"id":"202333100000100309","nm":"문현 지하철역","lat":35.139151,"lng":129.067399,"addr":"부산광역시 남구 전포대로 지하 17","isOpenAtNight":"N","hasBell":"Y","male":4,"female":5,"type":"개방화장실"},{"id":"202333100000100247","nm":"용호종합사회복지관","lat":35.12464,"lng":129.11345,"addr":"부산광역시 남구 이기대공원로 7","isOpenAtNight":"N","hasBell":"N","male":5,"female":5,"type":"개방화장실"},{"id":"202333100000100233","nm":"문현4치안센터","lat":35.13615,"lng":129.06774,"addr":"부산광역시 남구 지게골로 17 (문현동, 문현4치안센터)","isOpenAtNight":"N","hasBell":"N","male":1,"female":0,"type":"개방화장실"},{"id":"202333100000100335","nm":"부산남구문화원 3층","lat":35.1307,"lng":129.11221,"addr":"부산광역시 남구 신선로 566-2, 용호1동 현장민원실 3층 (용호동)","isOpenAtNight":"N","hasBell":"N","male":1,"female":2,"type":"개방화장실"},{"id":"202533100000100002","nm":"매일주유소","lat":35.136581,"lng":129.070025,"addr":"부산광역시 남구 수영로 22, 주유소 (문현동)","isOpenAtNight":"N","hasBell":"N","male":1,"female":0,"type":"개방화장실"},{"id":"202333100000100374","nm":"부경대학교 위드센터","lat":35.134032,"lng":129.1031735,"addr":"부산광역시 남구 용소로 45","isOpenAtNight":"N","hasBell":"Y","male":8,"female":8,"type":"개방화장실"},{"id":"202333100000100324","nm":"부산박물관 보존관리동1층","lat":35.1295608,"lng":129.0940856,"addr":"부산광역시 남구 유엔평화로 63","isOpenAtNight":"N","hasBell":"N","male":0,"female":1,"type":"개방화장실"},{"id":"202333100000100393","nm":"부경대학교 7공학관","lat":35.1173955,"lng":129.0923084,"addr":"부산광역시 남구 신선로 365","isOpenAtNight":"N","hasBell":"Y","male":23,"female":13,"type":"개방화장실"},{"id":"202333100000100367","nm":"부경대학교 누리관","lat":35.134032,"lng":129.1031735,"addr":"부산광역시 남구 용소로 45","isOpenAtNight":"N","hasBell":"Y","male":23,"female":20,"type":"개방화장실"},{"id":"202333100000100210","nm":"용호4동행정복지센터","lat":35.1134,"lng":129.11032,"addr":"부산광역시 남구 용호로216번길 10","isOpenAtNight":"N","hasBell":"N","male":4,"female":1,"type":"개방화장실"},{"id":"202333100000100257","nm":"남부운전면허시험장 본관","lat":35.1277,"lng":129.10565,"addr":"부산광역시 남구 용호로 16 (용호동, 남부운전면허시험장)","isOpenAtNight":"N","hasBell":"N","male":24,"female":18,"type":"개방화장실"},{"id":"202333100000100242","nm":"감만119안전센터","lat":35.17311,"lng":129.09421,"addr":"부산광역시 남구 우암로 81 (감만동, 감만119안전센터)","isOpenAtNight":"N","hasBell":"N","male":2,"female":0,"type":"개방화장실"},{"id":"202333100000100397","nm":"부경대학교 4공학관","lat":35.1173955,"lng":129.0923084,"addr":"부산광역시 남구 신선로 365","isOpenAtNight":"N","hasBell":"Y","male":4,"female":4,"type":"개방화장실"},{"id":"202333100000100349","nm":"부경대학교 창의관","lat":35.134032,"lng":129.1031735,"addr":"부산광역시 남구 용소로 45","isOpenAtNight":"N","hasBell":"Y","male":33,"female":106,"type":"개방화장실"},{"id":"202333100000100263","nm":"대연119안전센터","lat":35.13638,"lng":129.09709,"addr":"부산광역시 남구 수영로 279 (대연동, 대연119안전센터)","isOpenAtNight":"N","hasBell":"N","male":1,"female":0,"type":"개방화장실"},{"id":"202333100000100377","nm":"부경대학교 디자인관","lat":35.134032,"lng":129.1031735,"addr":"부산광역시 남구 용소로 45","isOpenAtNight":"N","hasBell":"Y","male":3,"female":6,"type":"개방화장실"},{"id":"202333100000100274","nm":"용호1동행정복지센터","lat":35.12083,"lng":129.10904,"addr":"부산광역시 남구 용호로42번길 140(용호동, 용호1동행정복지센터)","isOpenAtNight":"N","hasBell":"Y","male":2,"female":3,"type":"개방화장실"},{"id":"202333100000100187","nm":"백운포체육공원(마사구장)","lat":35.102877,"lng":129.112053,"addr":"부산광역시 남구 백운포로 64, 백운포체육공원(마사구장) 공중화장실 (용호동)[*미고시]","isOpenAtNight":"N","hasBell":"Y","male":1,"female":3,"type":"공중화장실"},{"id":"202333100000100236","nm":"유엔평화기념관","lat":35.15242,"lng":129.08322,"addr":"부산광역시 남구 홍곡로320번길 106 (대연동, UN평화기념관)","isOpenAtNight":"N","hasBell":"Y","male":9,"female":24,"type":"개방화장실"},{"id":"202333100000100232","nm":"문현지구대 공중화장실","lat":35.13912,"lng":129.06979,"addr":"부산광역시 남구 전포대로20번길 47 (문현동, 문현지구대)","isOpenAtNight":"N","hasBell":"N","male":1,"female":1,"type":"개방화장실"},{"id":"202333100000100306","nm":"대연(부산고려병원) 지하철역","lat":35.135153,"lng":129.092161,"addr":"부산광역시 남구 수영로 지하 242","isOpenAtNight":"N","hasBell":"Y","male":3,"female":4,"type":"개방화장실"},{"id":"202333100000100188","nm":"백운포체육공원(인조잔디구장옆)","lat":35.103482,"lng":129.110691,"addr":"부산광역시 남구 백운포로 104, 백운포체육공원 공중화장실 (용호동)","isOpenAtNight":"N","hasBell":"Y","male":1,"female":3,"type":"공중화장실"},{"id":"202333100000100239","nm":"대일주유소","lat":35.14441,"lng":129.101,"addr":"부산광역시 남구 황령대로 401-2 (대연동, 대일주유소)","isOpenAtNight":"N","hasBell":"N","male":2,"female":1,"type":"개방화장실"},{"id":"202333100000100164","nm":"대연1동행정복지센터","lat":35.13308,"lng":129.09161,"addr":"부산광역시 남구 유엔평화로 24 (대연동, 대연1동 주민센터)","isOpenAtNight":"N","hasBell":"N","male":5,"female":13,"type":"개방화장실"},{"id":"202533100000100001","nm":"(주)용호시장","lat":35.115019,"lng":129.112777,"addr":"부산광역시 남구 동명로152번길 93, 용호시장 (용호동)","isOpenAtNight":"N","hasBell":"N","male":5,"female":7,"type":"개방화장실"},{"id":"202333100000100329","nm":"부산대연4동우체국(1층)","lat":35.12749,"lng":129.09019,"addr":"부산광역시 남구 석포로 107, 부산대연4동우체국 (대연동)","isOpenAtNight":"N","hasBell":"N","male":1,"female":1,"type":"개방화장실"},{"id":"202333100000100169","nm":"대연4동행정복지센터","lat":35.13002,"lng":129.0913,"addr":"부산광역시 남구 석포로91번길 96 (대연동, 대연4동주민센터)","isOpenAtNight":"N","hasBell":"N","male":3,"female":3,"type":"개방화장실"},{"id":"202333100000100159","nm":"대연4치안센터","lat":35.12972,"lng":129.09368,"addr":"부산광역시 남구 유엔로 152 (대연동, 대연4치안센터)","isOpenAtNight":"N","hasBell":"N","male":1,"female":0,"type":"개방화장실"},{"id":"202333100000100403","nm":"부경대학교 수산가공연구센터","lat":35.1173955,"lng":129.0923084,"addr":"부산광역시 남구 신선로 365","isOpenAtNight":"N","hasBell":"Y","male":7,"female":7,"type":"개방화장실"},{"id":"202333100000100214","nm":"황령산유원지 생태숲","lat":35.149429,"lng":129.074032,"addr":"부산광역시 남구 진남로 268, 황령산 유원지 생태숲 공중화장실 (문현동)","isOpenAtNight":"N","hasBell":"Y","male":1,"female":3,"type":"공중화장실"},{"id":"202333100000100259","nm":"소원사외부화장실","lat":35.14019,"lng":129.08388,"addr":"부산광역시 남구 진남로96번길 56, 소원사 불교문화원 (대연동)","isOpenAtNight":"N","hasBell":"N","male":1,"female":1,"type":"개방화장실"},{"id":"202333100000100185","nm":"이기대 동생말","lat":35.13257,"lng":129.120576,"addr":"부산광역시 남구 이기대공원로 57-167, 이기대동생말 공중화장실 (용호동)","isOpenAtNight":"N","hasBell":"Y","male":1,"female":2,"type":"공중화장실"},{"id":"202333100000100395","nm":"부경대학교 공학도서관","lat":35.1173955,"lng":129.0923084,"addr":"부산광역시 남구 신선로 365","isOpenAtNight":"N","hasBell":"Y","male":4,"female":6,"type":"개방화장실"},{"id":"202333100000100368","nm":"부경대학교 웅비관","lat":35.134032,"lng":129.1031735,"addr":"부산광역시 남구 용소로 45","isOpenAtNight":"N","hasBell":"Y","male":17,"female":26,"type":"개방화장실"},{"id":"202333100000100308","nm":"지게골 지하철역","lat":35.135574,"lng":129.074365,"addr":"부산광역시 남구 수영로 지하 70","isOpenAtNight":"N","hasBell":"Y","male":5,"female":6,"type":"개방화장실"},{"id":"202333100000100231","nm":"대성주유소","lat":35.14399,"lng":129.07641,"addr":"부산광역시 남구 문현로 67 (문현동, 대성주유소)","isOpenAtNight":"N","hasBell":"N","male":2,"female":0,"type":"개방화장실"},{"id":"202333100000100167","nm":"용호지구대 공중화장실","lat":35.12556,"lng":129.11237,"addr":"부산광역시 남구 분포로 1 (용호동, 용호지구대)","isOpenAtNight":"N","hasBell":"N","male":1,"female":1,"type":"개방화장실"},{"id":"202333100000100264","nm":"반도주유소","lat":35.12448,"lng":129.1002,"addr":"부산광역시 남구 신선로 442 (용당동, S-OIL반도주유소)","isOpenAtNight":"N","hasBell":"N","male":1,"female":1,"type":"개방화장실"},{"id":"202333100000100189","nm":"해파랑길","lat":35.101558,"lng":129.122909,"addr":"부산광역시 남구 오륙도로 137, 해파랑길 공중화장실 (용호동)","isOpenAtNight":"N","hasBell":"Y","male":2,"female":7,"type":"공중화장실"},{"id":"202333100000100275","nm":"남부교육지원청","lat":35.13638,"lng":129.08549,"addr":"부산광역시 남구 못골로 29","isOpenAtNight":"N","hasBell":"N","male":6,"female":9,"type":"개방화장실"},{"id":"202333100000100184","nm":"이기대공원(공룡발자국 앞)","lat":35.123882,"lng":129.122218,"addr":"부산광역시 남구 이기대공원로 105-15, 이기대공원공룡발자국 공중화장실 (용호동)[*미고시]","isOpenAtNight":"N","hasBell":"Y","male":1,"female":2,"type":"공중화장실"},{"id":"202333100000100193","nm":"신선대 입구 임도","lat":35.105642,"lng":129.104677,"addr":"부산광역시 남구 신선대산복로174번길 280, 신선대 입구 임도 공중화장실 (용호동)","isOpenAtNight":"N","hasBell":"Y","male":1,"female":2,"type":"공중화장실"},{"id":"202333100000100273","nm":"용호1동현장민원실(1층)","lat":35.1305,"lng":129.11208,"addr":"부산광역시 남구 신선로 566-2, 1층(용호동, 용호1동현장민원실)","isOpenAtNight":"N","hasBell":"N","male":2,"female":2,"type":"개방화장실"},{"id":"202333100000100270","nm":"우암동 복합청사","lat":35.12504,"lng":129.07696,"addr":"부산광역시 남구 동제당로 368, 우암동복합청사 (우암동)","isOpenAtNight":"N","hasBell":"Y","male":0,"female":4,"type":"개방화장실"},{"id":"202333100000100353","nm":"부경대학교 가온관","lat":35.134032,"lng":129.1031735,"addr":"부산광역시 남구 용소로 45","isOpenAtNight":"N","hasBell":"Y","male":26,"female":35,"type":"개방화장실"},{"id":"202333100000100347","nm":"부산해바라기소극장","lat":35.13695,"lng":129.10228,"addr":"부산광역시 남구 용소로13번길 30, 대명빌딩 지하1층 (대연동)","isOpenAtNight":"N","hasBell":"N","male":1,"female":2,"type":"개방화장실"},{"id":"202333100000100276","nm":"황령산유원지 생태숲(상부)","lat":35.15002,"lng":129.07487,"addr":"부산광역시 남구 진남로 274-13, 황령산유원지 생태숲 상부 공중화장실 (문현동)","isOpenAtNight":"N","hasBell":"Y","male":0,"female":2,"type":"공중화장실"},{"id":"202333100000100286","nm":"부산대연우체국(1층)","lat":35.13591,"lng":129.09319,"addr":"부산광역시 남구 못골로 97 (대연동, 부산대연우체국)","isOpenAtNight":"N","hasBell":"N","male":1,"female":2,"type":"개방화장실"},{"id":"202333100000100373","nm":"부경대학교 나비센터","lat":35.134032,"lng":129.1031735,"addr":"부산광역시 남구 용소로 45","isOpenAtNight":"N","hasBell":"Y","male":11,"female":11,"type":"개방화장실"},{"id":"202333100000100250","nm":"부산 용당세관 화장실","lat":35.11488,"lng":129.09424,"addr":"부산광역시 남구 신선로 325 (용당동, 용당세관)","isOpenAtNight":"N","hasBell":"Y","male":4,"female":11,"type":"개방화장실"},{"id":"202333100000100387","nm":"부경대학교 공학종합실습센터","lat":35.1173955,"lng":129.0923084,"addr":"부산광역시 남구 신선로 365","isOpenAtNight":"N","hasBell":"Y","male":6,"female":4,"type":"개방화장실"}]}