{"items":[{"id":"202232200000100004","nm":"강남운전면허시험장","lat":37.50859,"lng":127.06743,"addr":"서울특별시 강남구 테헤란로114길 23","isOpenAtNight":"N","hasBell":"N","male":12,"female":19,"type":"공중화장실"},{"id":"202232200000100502","nm":"역삼한스빌아파트상가","lat":37.4919829893,"lng":127.0329559942,"addr":"서울특별시 강남구 도곡로3길 26 (역삼동, 역삼한스빌아파트)","isOpenAtNight":"N","hasBell":"N","male":2,"female":2,"type":"개방화장실"},{"id":"202232200000100039","nm":"세곡119안전센터","lat":37.470679,"lng":127.107421,"addr":"서울특별시 강남구 밤고개로 268","isOpenAtNight":"N","hasBell":"N","male":1,"female":2,"type":"공중화장실"},{"id":"202232200000100027","nm":"탄천주차장","lat":37.516085,"lng":127.066572,"addr":"서울특별시 강남구 역삼로107길 20-28","isOpenAtNight":"N","hasBell":"Y","male":2,"female":4,"type":"공중화장실"},{"id":"202232200000100012","nm":"삼성세무서","lat":37.5234985,"lng":127.0359705,"addr":"서울특별시 강남구 테헤란로 114, 5층,6층","isOpenAtNight":"N","hasBell":"Y","male":0,"female":5,"type":"공중화장실"},{"id":"202232200000100055","nm":"대치4문화센터","lat":37.499758,"lng":127.057893,"addr":"서울특별시 강남구 도곡로 77길 23","isOpenAtNight":"N","hasBell":"Y","male":11,"female":11,"type":"공중화장실"},{"id":"202232200000100011","nm":"국민연금공단","lat":37.498299,"lng":127.030209,"addr":"서울특별시 강남구 도산대로 128","isOpenAtNight":"N","hasBell":"N","male":6,"female":0,"type":"공중화장실"},{"id":"202332200000100500","nm":"실크캐슬","lat":37.4956487732,"lng":127.0502498129,"addr":"서울특별시 강남구 도곡로 313 (역삼동)","isOpenAtNight":"N","hasBell":"N","male":1,"female":2,"type":"개방화장실"},{"id":"202232200000100005","nm":"개포3동주민센터","lat":37.492167,"lng":127.073663,"addr":"서울특별시 강남구 개포로 615, 석탑프라자, 개포3동주민센터 (개포동)","isOpenAtNight":"N","hasBell":"N","male":3,"female":6,"type":"공중화장실"},{"id":"202332200000100504","nm":"심스빌딩","lat":37.5103399869,"lng":127.0576427153,"addr":"서울특별시 강남구 테헤란로87길 39, 심스빌딩 (삼성동)","isOpenAtNight":"N","hasBell":"Y","male":1,"female":1,"type":"개방화장실"},{"id":"202232200000100014","nm":"매봉산 실내배드민턴장","lat":37.508236,"lng":127.026921,"addr":"서울특별시 강남구 남부순환로 2711","isOpenAtNight":"N","hasBell":"Y","male":2,"female":1,"type":"공중화장실"},{"id":"202232200000100500","nm":"대성석유(주)동호주유소","lat":37.5185133147,"lng":127.0646763158,"addr":"서울특별시 강남구 봉은사로113길 51, GS칼텍스 동호점 (삼성동)","isOpenAtNight":"N","hasBell":"N","male":1,"female":2,"type":"개방화장실"},{"id":"202232200000100028","nm":"탄천주차장","lat":37.507644,"lng":127.067886,"addr":"서울특별시 강남구 역삼로107길 20-28","isOpenAtNight":"N","hasBell":"Y","male":1,"female":2,"type":"공중화장실"},{"id":"202432200000100007","nm":"청운교회","lat":37.4956642373,"lng":127.0452023603,"addr":"서울특별시 강남구 언주로65길 6, 청운교회 (역삼동)","isOpenAtNight":"N","hasBell":"N","male":4,"female":4,"type":"개방화장실"},{"id":"202232200000100002","nm":"세곡동공중화장실(신설)","lat":37.46509,"lng":127.10731,"addr":"서울특별시 강남구 헌릉로 621","isOpenAtNight":"N","hasBell":"Y","male":2,"female":3,"type":"공중화장실"},{"id":"202232200000100047","nm":"신사문화센터","lat":37.524066,"lng":127.022651,"addr":"서울특별시 강남구 압구정로 128","isOpenAtNight":"N","hasBell":"Y","male":8,"female":7,"type":"공중화장실"},{"id":"202232200000100119","nm":"대치노인복지센터","lat":37.5,"lng":127,"addr":"서울특별시 강남구 역삼로69길 22","isOpenAtNight":"N","hasBell":"N","male":0,"female":0,"type":"공중화장실"},{"id":"202332200000100501","nm":"영광빌딩","lat":37.4975740017,"lng":127.044752977,"addr":"서울특별시 강남구 언주로 333 (역삼동)","isOpenAtNight":"N","hasBell":"N","male":1,"female":1,"type":"개방화장실"},{"id":"202332200000100507","nm":"흥창빌딩","lat":37.5182711939,"lng":127.0199871285,"addr":"서울특별시 강남구 도산대로1길 24 (신사동)","isOpenAtNight":"N","hasBell":"N","male":6,"female":7,"type":"개방화장실"},{"id":"202232200000100001","nm":"세곡동공중화장실(기존)","lat":37.46519,"lng":127.10996,"addr":"서울특별시 강남구 헌릉로 649","isOpenAtNight":"N","hasBell":"Y","male":2,"female":3,"type":"공중화장실"},{"id":"202232200000100030","nm":"탄천주차장","lat":37.50438,"lng":127.0678,"addr":"서울특별시 강남구 역삼로107길 20-28","isOpenAtNight":"N","hasBell":"N","male":2,"female":2,"type":"공중화장실"},{"id":"202232200000100121","nm":"역삼노인복지센터","lat":37.49463,"lng":127.041792,"addr":"서울특별시 강남구 도곡로27길 27","isOpenAtNight":"N","hasBell":"Y","male":0,"female":0,"type":"공중화장실"},{"id":"202232200000100057","nm":"역삼2문화센터","lat":37.496,"lng":127.046807,"addr":"서울특별시 강남구 도곡로 43길 25","isOpenAtNight":"N","hasBell":"N","male":6,"female":12,"type":"공중화장실"},{"id":"202232200000100003","nm":"압구정동주민센터","lat":37.530708,"lng":127.030616,"addr":"서울특별시 강남구 압구정로33길 48","isOpenAtNight":"N","hasBell":"Y","male":4,"female":7,"type":"공중화장실"},{"id":"202232200000100029","nm":"탄천주차장","lat":37.50438,"lng":127.0678,"addr":"서울특별시 강남구 역삼로107길 20-28","isOpenAtNight":"N","hasBell":"N","male":2,"female":2,"type":"공중화장실"},{"id":"202232200000100038","nm":"개포119안전센터","lat":37.474714,"lng":127.04988,"addr":"서울특별시 강남구 논현로10길 19","isOpenAtNight":"N","hasBell":"N","male":1,"female":1,"type":"공중화장실"},{"id":"202232200000100067","nm":"일원1동주민센터","lat":37.49,"lng":127.08,"addr":"서울특별시 강남구 개포로 615, 석탑프라자, 개포3동주민센터 (개포동)","isOpenAtNight":"N","hasBell":"Y","male":2,"female":4,"type":"공중화장실"},{"id":"202232200000100026","nm":"탄천주차장","lat":37.512718,"lng":127.067107,"addr":"서울특별시 강남구 역삼로107길 20-28","isOpenAtNight":"N","hasBell":"Y","male":1,"female":1,"type":"공중화장실"},{"id":"202232200000100013","nm":"압구정노인복지센터","lat":37.486,"lng":127.04223,"addr":"서울특별시 강남구 도산대로53길 5(신사동)","isOpenAtNight":"N","hasBell":"Y","male":2,"female":1,"type":"공중화장실"},{"id":"202332200000100502","nm":"선릉 대림아크로텔","lat":37.5066550675,"lng":127.0483861818,"addr":"서울특별시 강남구 선릉로 524, 선릉대림아크로텔 (삼성동)","isOpenAtNight":"N","hasBell":"N","male":3,"female":5,"type":"개방화장실"},{"id":"202232200000100034","nm":"강남소방서","lat":37.510282,"lng":127.066822,"addr":"서울특별시 강남구 테헤란로 629","isOpenAtNight":"N","hasBell":"N","male":1,"female":1,"type":"공중화장실"},{"id":"202232200000100043","nm":"논현노인종합복지관","lat":37.3,"lng":127.01,"addr":"서울특별시 강남구 강남대로128길 59","isOpenAtNight":"N","hasBell":"N","male":5,"female":6,"type":"공중화장실"},{"id":"202232200000100053","nm":"대치1문화센터","lat":37.493229,"lng":127.056723,"addr":"서울특별시 강남구 남부순환로 391길 19","isOpenAtNight":"N","hasBell":"Y","male":5,"female":10,"type":"공중화장실"},{"id":"202232200000100037","nm":"수서119안전센터","lat":37.484893,"lng":127.092833,"addr":"서울특별시 강남구 광평로31길 6","isOpenAtNight":"N","hasBell":"N","male":1,"female":1,"type":"공중화장실"},{"id":"202232200000100062","nm":"자곡문화센터","lat":37.471725,"lng":127.094485,"addr":"서울특별시 강남구 자곡로 100","isOpenAtNight":"N","hasBell":"Y","male":18,"female":19,"type":"공중화장실"},{"id":"202232200000100065","nm":"힐링센터(개포)","lat":37.483814,"lng":127.064626,"addr":"서울특별시 강남구 삼성로 3길 39","isOpenAtNight":"N","hasBell":"Y","male":3,"female":4,"type":"공중화장실"},{"id":"202332200000100503","nm":"에이엔에이빌딩","lat":37.5122184281,"lng":127.0312217813,"addr":"서울특별시 강남구 논현로 653 (논현동)","isOpenAtNight":"N","hasBell":"N","male":2,"female":2,"type":"개방화장실"},{"id":"202232200000100036","nm":"역삼119안전센터","lat":37.497098,"lng":127.042436,"addr":"서울특별시 강남구 역삼로 236","isOpenAtNight":"N","hasBell":"N","male":1,"female":1,"type":"공중화장실"},{"id":"202232200000100031","nm":"견인보관소","lat":37.50438,"lng":127.0678,"addr":"서울특별시 강남구 역삼로107길 20-28","isOpenAtNight":"N","hasBell":"N","male":2,"female":2,"type":"공중화장실"},{"id":"202232200000100120","nm":"강남시니어플라자 공중화장실","lat":37.50995,"lng":127.0431,"addr":"서울특별시 강남구 봉은사로 332","isOpenAtNight":"N","hasBell":"Y","male":14,"female":18,"type":"공중화장실"},{"id":"202232200000100044","nm":"미미위강남세움센터","lat":37.4871,"lng":127.107,"addr":"서울특별시 강남구 광평로60길 22(수서동)","isOpenAtNight":"N","hasBell":"Y","male":3,"female":5,"type":"공중화장실"},{"id":"202232200000100063","nm":"푸른솔도서관","lat":37.496382,"lng":127.032015,"addr":"서울특별시 강남구 테헤란로 8길 36","isOpenAtNight":"N","hasBell":"N","male":5,"female":7,"type":"공중화장실"},{"id":"202332200000100506","nm":"한우리 비전센타","lat":37.4884675893,"lng":127.0333798275,"addr":"서울특별시 강남구 강남대로54길 9 (도곡동)","isOpenAtNight":"N","hasBell":"N","male":2,"female":2,"type":"개방화장실"},{"id":"202232200000100049","nm":"논현2문화센터","lat":37.517352,"lng":127.037157,"addr":"서울특별시 강남구 학동로 43길 17","isOpenAtNight":"N","hasBell":"N","male":11,"female":12,"type":"공중화장실"},{"id":"202332200000100505","nm":"한우리교회","lat":37.4880719975,"lng":127.0335537818,"addr":"서울특별시 강남구 강남대로54길 10, 교회 (도곡동)","isOpenAtNight":"N","hasBell":"N","male":4,"female":8,"type":"개방화장실"},{"id":"202232200000100035","nm":"영동119안전센터","lat":37.522132,"lng":127.036926,"addr":"서울특별시 강남구 도산대로 320","isOpenAtNight":"N","hasBell":"N","male":1,"female":1,"type":"공중화장실"},{"id":"202432200000100006","nm":"동영문화센터","lat":37.4979241922,"lng":127.0443565917,"addr":"서울특별시 강남구 언주로 337, 동영문화센터 (역삼동)","isOpenAtNight":"N","hasBell":"N","male":4,"female":4,"type":"개방화장실"},{"id":"202232200000100007","nm":"강남구민체육관","lat":37.483391,"lng":127.047097,"addr":"서울특별시 강남구 개포로28길 47(개포동)","isOpenAtNight":"N","hasBell":"Y","male":2,"female":2,"type":"공중화장실"},{"id":"202232200000100056","nm":"역삼1문화센터","lat":37.495314,"lng":127.033222,"addr":"서울특별시 강남구 역삼로 7길 16","isOpenAtNight":"N","hasBell":"N","male":16,"female":26,"type":"공중화장실"}]}