{"items":[{"id":"202434800000100095","nm":"솔례주유소","lat":35.66625257,"lng":128.4318036,"addr":"대구광역시 달성군 현풍읍 국가산단북로 380","isOpenAtNight":"N","hasBell":"N","male":2,"female":1,"type":"개방화장실"},{"id":"202434800000100266","nm":"화원옥포 영업소","lat":35.7973,"lng":128.4804,"addr":"대구광역시 달성군 화원읍 비슬로 2335","isOpenAtNight":"N","hasBell":"N","male":1,"female":4,"type":"개방화장실"},{"id":"202434800000100229","nm":"가창면보건지소","lat":35.80270839,"lng":128.6228326,"addr":"대구광역시 달성군 가창면 가창로 1100, 가창면사무소","isOpenAtNight":"N","hasBell":"N","male":2,"female":2,"type":"공중화장실"},{"id":"202334800000100630","nm":"화원동산 어린이 놀이터","lat":35.8130311,"lng":128.4818589,"addr":"대구광역시 달성군 화원읍 사문진로1길 40-14","isOpenAtNight":"N","hasBell":"Y","male":2,"female":4,"type":"개방화장실"},{"id":"202434800000100032","nm":"한국전력공사 남대구지사","lat":35.8087,"lng":128.4931,"addr":"대구광역시 달성군 화원읍 비슬로509길 26","isOpenAtNight":"N","hasBell":"N","male":9,"female":4,"type":"공중화장실"},{"id":"202334800000100638","nm":"달천예술창작공간","lat":35.8867,"lng":128.4846,"addr":"대구광역시 달성군 다사읍 다사로 515","isOpenAtNight":"N","hasBell":"N","male":2,"female":2,"type":"개방화장실"},{"id":"202434800000100113","nm":"비슬산휴양림운동장","lat":35.69297554,"lng":128.5066994,"addr":"대구광역시 달성군 유가읍 일연선사길 99, 비슬산자연휴양림","isOpenAtNight":"N","hasBell":"Y","male":5,"female":6,"type":"공중화장실"},{"id":"202434800000100184","nm":"논공금포시장","lat":35.77408232,"lng":128.4216852,"addr":"대구광역시 달성군 논공읍 금포시장길 4, 시장","isOpenAtNight":"N","hasBell":"Y","male":2,"female":3,"type":"공중화장실"},{"id":"202434800000100072","nm":"용마주유소","lat":35.79514321,"lng":128.6275677,"addr":"대구광역시 달성군 가창면 가창로 1001","isOpenAtNight":"N","hasBell":"N","male":1,"female":2,"type":"개방화장실"},{"id":"202334800000100632","nm":"달성한일우호관","lat":35.7234069,"lng":128.6472372,"addr":"대구광역시 달성군 가창면 우록길 206","isOpenAtNight":"N","hasBell":"Y","male":1,"female":4,"type":"공중화장실"},{"id":"202434800000100225","nm":"가창파출소","lat":35.80062386,"lng":128.6231796,"addr":"대구광역시 달성군 가창면 가창로 1076","isOpenAtNight":"N","hasBell":"N","male":1,"female":0,"type":"공중화장실"},{"id":"202434800000100120","nm":"문양리 마을공동주차장","lat":35.8667,"lng":128.4379,"addr":"대구광역시 달성군 다사읍 문양역5길 22","isOpenAtNight":"N","hasBell":"N","male":2,"female":4,"type":"공중화장실"},{"id":"202434800000100105","nm":"산업단지2호근린공원","lat":35.6331,"lng":128.4278,"addr":"대구광역시 달성군 구지면 달성2차동2로 36-28","isOpenAtNight":"N","hasBell":"Y","male":1,"female":4,"type":"공중화장실"},{"id":"202434800000100107","nm":"사문진역사공원1","lat":35.81105329,"lng":128.4786571,"addr":"대구광역시 달성군 화원읍 사문진로1길 40-12, 화원동산관리소","isOpenAtNight":"N","hasBell":"Y","male":2,"female":5,"type":"공중화장실"},{"id":"202434800000100110","nm":"비슬산휴양림캠핑장","lat":35.69001083,"lng":128.5129017,"addr":"대구광역시 달성군 유가읍 일연선사길 99, 비슬산자연휴양림","isOpenAtNight":"N","hasBell":"Y","male":3,"female":6,"type":"공중화장실"},{"id":"202434800000100265","nm":"북다사 영업소","lat":35.8853,"lng":128.4683,"addr":"대구광역시 달성군 다사읍 다사로 320","isOpenAtNight":"N","hasBell":"N","male":0,"female":1,"type":"개방화장실"},{"id":"202434800000100097","nm":"세천주유소","lat":35.8777086,"lng":128.4782209,"addr":"대구광역시 달성군 다사읍 세천북로 32","isOpenAtNight":"N","hasBell":"N","male":1,"female":2,"type":"개방화장실"},{"id":"202434800000100228","nm":"가창면사무소","lat":35.80270839,"lng":128.6228326,"addr":"대구광역시 달성군 가창면 가창로 1100","isOpenAtNight":"N","hasBell":"N","male":6,"female":3,"type":"공중화장실"},{"id":"202434800000100158","nm":"달성군민운동장(서편)","lat":35.72956066,"lng":128.4518396,"addr":"대구광역시 달성군 논공읍 논공로 697-10","isOpenAtNight":"N","hasBell":"Y","male":4,"female":5,"type":"공중화장실"},{"id":"202434800000100059","nm":"유가사주차장(신)","lat":35.7144,"lng":128.5033,"addr":"대구광역시 달성군 유가읍 유가사2길 52","isOpenAtNight":"N","hasBell":"Y","male":2,"female":4,"type":"공중화장실"},{"id":"202434800000100019","nm":"현풍휴게소(하행)창원방향","lat":35.70163161,"lng":128.4349727,"addr":"대구광역시 달성군 현풍읍 성하길 48, 현풍휴게소(하행선)","isOpenAtNight":"N","hasBell":"N","male":20,"female":22,"type":"개방화장실"},{"id":"202434800000100016","nm":"화원119안전센터","lat":35.798779,"lng":128.5016592,"addr":"대구광역시 달성군 화원읍 화암로 122","isOpenAtNight":"N","hasBell":"N","male":2,"female":0,"type":"공중화장실"},{"id":"202434800000100018","nm":"홍토주유소(충전소)","lat":35.72913696,"lng":128.431244,"addr":"대구광역시 달성군 논공읍 비슬로 1065","isOpenAtNight":"N","hasBell":"N","male":1,"female":1,"type":"개방화장실"},{"id":"202334800000100654","nm":"테크노더원 빌딩","lat":35.6939,"lng":128.4733,"addr":"대구광역시 달성군 유가읍 테크노순환로12길 33","isOpenAtNight":"N","hasBell":"N","male":2,"female":2,"type":"개방화장실"},{"id":"202434800000100205","nm":"국가산단문화공원","lat":35.80822694,"lng":128.4868622,"addr":"대구광역시 달성군 구지면 국가산단대로52길 24-64","isOpenAtNight":"N","hasBell":"N","male":1,"female":1,"type":"개방화장실"},{"id":"202434800000100161","nm":"달성군노인복지관","lat":35.78910691,"lng":128.4716982,"addr":"대구광역시 달성군 옥포읍 옥포로 13","isOpenAtNight":"N","hasBell":"N","male":5,"female":14,"type":"공중화장실"},{"id":"202434800000100192","nm":"냉천주유소","lat":35.77266737,"lng":128.6472392,"addr":"대구광역시 달성군 가창면 가창로 672","isOpenAtNight":"N","hasBell":"N","male":1,"female":0,"type":"개방화장실"},{"id":"202434800000100026","nm":"현풍시장","lat":35.69432921,"lng":128.4422325,"addr":"대구광역시 달성군 현풍읍 비슬로130길 51","isOpenAtNight":"N","hasBell":"N","male":5,"female":6,"type":"공중화장실"},{"id":"202434800000100224","nm":"가창파크골프장","lat":35.7525,"lng":128.6514,"addr":"대구광역시 달성군 가창면 가창로 604","isOpenAtNight":"N","hasBell":"N","male":1,"female":1,"type":"간이화장실"},{"id":"202434800000100221","nm":"강정고령보","lat":35.84116377,"lng":128.4650582,"addr":"대구광역시 달성군 다사읍 강정본길 57","isOpenAtNight":"N","hasBell":"N","male":3,"female":8,"type":"공중화장실"},{"id":"202434800000100135","nm":"대동주유소","lat":35.66657205,"lng":128.4328253,"addr":"대구광역시 달성군 현풍읍 국가산단북로 388","isOpenAtNight":"N","hasBell":"N","male":2,"female":2,"type":"개방화장실"},{"id":"202434800000100264","nm":"북달성 영업소","lat":35.8711,"lng":128.4585,"addr":"대구광역시 달성군 다사읍 대구외곽순환고속도로 7","isOpenAtNight":"N","hasBell":"N","male":0,"female":1,"type":"개방화장실"},{"id":"202434800000100217","nm":"공단파출소","lat":35.73032022,"lng":128.4528216,"addr":"대구광역시 달성군 논공읍 논공중앙로33길 7, 공단파출소","isOpenAtNight":"N","hasBell":"N","male":1,"female":0,"type":"공중화장실"},{"id":"202434800000100155","nm":"달성군새마을회관","lat":35.77585968,"lng":128.4325986,"addr":"대구광역시 달성군 논공읍 금강로16길 11","isOpenAtNight":"N","hasBell":"N","male":3,"female":8,"type":"공중화장실"},{"id":"202434800000100152","nm":"달성군청소년센터","lat":35.72389449,"lng":128.4550832,"addr":"대구광역시 달성군 논공읍 논공로 252","isOpenAtNight":"N","hasBell":"N","male":9,"female":15,"type":"공중화장실"},{"id":"202434800000100182","nm":"논공우체국","lat":35.73003954,"lng":128.4527811,"addr":"대구광역시 달성군 논공읍 비슬로366길 3, 논공우체국","isOpenAtNight":"N","hasBell":"N","male":0,"female":0,"type":"공중화장실"},{"id":"202434800000100197","nm":"남평문씨본리세거지","lat":35.79220304,"lng":128.5183876,"addr":"대구광역시 달성군 화원읍 인흥3길 18-8","isOpenAtNight":"N","hasBell":"Y","male":3,"female":3,"type":"공중화장실"},{"id":"202434800000100242","nm":"(주)우리주유소(하나로지점)","lat":35.7985,"lng":128.4899,"addr":"대구광역시 달성군 화원읍 화암로 3","isOpenAtNight":"N","hasBell":"N","male":2,"female":2,"type":"개방화장실"},{"id":"202434800000100043","nm":"테크노주유소","lat":35.68385855,"lng":128.4687433,"addr":"대구광역시 달성군 유가읍 테크노순환로 230","isOpenAtNight":"N","hasBell":"N","male":2,"female":2,"type":"개방화장실"},{"id":"202434800000100236","nm":"(주)한성엘피지 옥포충전소","lat":35.7646,"lng":128.4888,"addr":"대구광역시 달성군 옥포읍 옥포로 354","isOpenAtNight":"N","hasBell":"N","male":1,"female":2,"type":"개방화장실"},{"id":"202434800000100172","nm":"다사역","lat":35.864732,"lng":128.45853,"addr":"대구광역시 달성군 다사읍 매곡로12길 33","isOpenAtNight":"N","hasBell":"Y","male":3,"female":8,"type":"개방화장실"},{"id":"202434800000100268","nm":"현풍영업소","lat":35.6711,"lng":128.4385,"addr":"대구광역시 달성군 현풍읍 중부내륙지선고속도로 2","isOpenAtNight":"N","hasBell":"N","male":4,"female":2,"type":"개방화장실"},{"id":"202334800000100625","nm":"현풍공영버스정류장","lat":35.696476,"lng":128.440919,"addr":"대구광역시 달성군 현풍읍 비슬로136길 15-65","isOpenAtNight":"N","hasBell":"Y","male":3,"female":6,"type":"개방화장실"},{"id":"202434800000100076","nm":"옥포읍사무소","lat":35.79076028,"lng":128.4729719,"addr":"대구광역시 달성군 옥포읍 비슬로 2215, 옥포읍사무소","isOpenAtNight":"N","hasBell":"N","male":8,"female":4,"type":"공중화장실"},{"id":"202434800000100092","nm":"송해공원 제3주차장(1)","lat":35.781,"lng":128.48,"addr":"대구광역시 달성군 옥포읍 옥포로 126-16","isOpenAtNight":"N","hasBell":"Y","male":2,"female":5,"type":"공중화장실"},{"id":"202434800000100007","nm":"화원현대셀프주유소","lat":35.7941,"lng":128.4816,"addr":"대구광역시 달성군 화원읍 비슬로 2388","isOpenAtNight":"N","hasBell":"N","male":1,"female":1,"type":"개방화장실"},{"id":"202434800000100041","nm":"포산공원","lat":35.6896,"lng":128.4571,"addr":"대구광역시 달성군 현풍읍 테크노대로 93","isOpenAtNight":"N","hasBell":"Y","male":1,"female":3,"type":"공중화장실"},{"id":"202434800000100156","nm":"달성군보건소","lat":35.69481602,"lng":128.4403212,"addr":"대구광역시 달성군 현풍읍 비슬로130길 17, 달성군보건소","isOpenAtNight":"N","hasBell":"N","male":17,"female":36,"type":"공중화장실"},{"id":"202434800000100006","nm":"화원휴양림공중화장실","lat":35.77179173,"lng":128.5367385,"addr":"대구광역시 달성군 화원읍 화원휴양림길 126","isOpenAtNight":"N","hasBell":"Y","male":3,"female":7,"type":"공중화장실"},{"id":"202434800000100179","nm":"논공축구장","lat":35.7739869,"lng":128.4212191,"addr":"대구광역시 달성군 논공읍 논공로 240","isOpenAtNight":"N","hasBell":"Y","male":1,"female":3,"type":"공중화장실"},{"id":"202434800000100252","nm":"도동유교문화관2","lat":35.4205,"lng":128.2216,"addr":"대구광역시 달성군 구지면 구지서로 716","isOpenAtNight":"N","hasBell":"N","male":1,"female":1,"type":"공중화장실"},{"id":"202434800000100101","nm":"설화명곡역","lat":35.797473,"lng":128.488822,"addr":"대구광역시 달성군 화원읍 비슬로 지하 2476","isOpenAtNight":"N","hasBell":"Y","male":5,"female":8,"type":"개방화장실"},{"id":"202334800000100617","nm":"노사평화의 전당 화장실","lat":35.6527089,"lng":128.4202781,"addr":"대구광역시 달성군 구지면 국가산단대로52길 6","isOpenAtNight":"N","hasBell":"Y","male":7,"female":18,"type":"개방화장실"},{"id":"202434800000100090","nm":"송해공원둘레길","lat":35.77717874,"lng":128.4860803,"addr":"대구광역시 달성군 옥포면 옥포로 200","isOpenAtNight":"N","hasBell":"Y","male":1,"female":4,"type":"공중화장실"},{"id":"202434800000100071","nm":"용문사입구","lat":35.76913443,"lng":128.5389892,"addr":"대구광역시 달성군 화원읍 화원휴양림길 130","isOpenAtNight":"N","hasBell":"N","male":1,"female":2,"type":"간이화장실"},{"id":"202434800000100151","nm":"달성문화센터","lat":35.86547511,"lng":128.4609555,"addr":"대구광역시 달성군 다사읍 대실역북로2길 188","isOpenAtNight":"N","hasBell":"Y","male":24,"female":30,"type":"개방화장실"},{"id":"202334800000100629","nm":"화원동산 동물원","lat":35.812445,"lng":128.4850482,"addr":"대구광역시 달성군 화원읍 사문진로1길 40-14","isOpenAtNight":"N","hasBell":"Y","male":2,"female":5,"type":"개방화장실"},{"id":"202434800000100094","nm":"송해공원 제1주차장","lat":35.7676,"lng":128.4875,"addr":"대구광역시 달성군 옥포읍 옥포로 306-9","isOpenAtNight":"N","hasBell":"Y","male":2,"female":6,"type":"공중화장실"},{"id":"202434800000100065","nm":"원교 어린이공원","lat":35.69370323,"lng":128.4423383,"addr":"대구광역시 달성군 현풍읍 비슬로128길 26-3","isOpenAtNight":"N","hasBell":"Y","male":2,"female":2,"type":"공중화장실"},{"id":"202434800000100025","nm":"현풍읍사무소","lat":35.69725235,"lng":128.4475726,"addr":"대구광역시 달성군 현풍읍 비슬로134길 157, 현풍읍사무소","isOpenAtNight":"N","hasBell":"N","male":6,"female":7,"type":"공중화장실"},{"id":"202334800000100635","nm":"강정고령보 만남의광장","lat":35.84106,"lng":128.465057,"addr":"대구광역시 달성군 다사읍 강정본길 57","isOpenAtNight":"N","hasBell":"N","male":1,"female":2,"type":"개방화장실"},{"id":"202434800000100162","nm":"달성국민체육센터","lat":35.70169197,"lng":128.4418206,"addr":"대구광역시 달성군 현풍읍 현풍동로 180, 달성국민체육센터","isOpenAtNight":"N","hasBell":"Y","male":6,"female":2,"type":"공중화장실"},{"id":"202434800000100212","nm":"구지면보건지소","lat":35.65879236,"lng":128.4135938,"addr":"대구광역시 달성군 구지면 창리로11길 38","isOpenAtNight":"N","hasBell":"N","male":1,"female":1,"type":"공중화장실"},{"id":"202434800000100103","nm":"서재문화체육센터","lat":35.88428696,"lng":128.5032012,"addr":"대구광역시 달성군 다사읍 다사로 750","isOpenAtNight":"N","hasBell":"Y","male":7,"female":17,"type":"개방화장실"},{"id":"202434800000100175","nm":"늘푸른주유소","lat":35.86116094,"lng":128.4541986,"addr":"대구광역시 달성군 옥포읍 비슬로 2165","isOpenAtNight":"N","hasBell":"N","male":3,"female":3,"type":"개방화장실"},{"id":"202434800000100200","nm":"기내미재","lat":35.7673,"lng":128.5122,"addr":"대구광역시 달성군 옥포읍 명곡로 421","isOpenAtNight":"N","hasBell":"Y","male":1,"female":3,"type":"공중화장실"},{"id":"202434800000100022","nm":"현풍파출소","lat":35.69563099,"lng":128.4451084,"addr":"대구광역시 달성군 현풍읍 현풍중앙로 70, 현풍파출소","isOpenAtNight":"N","hasBell":"N","male":2,"female":2,"type":"공중화장실"},{"id":"202434800000100017","nm":"화남파출소","lat":35.79869057,"lng":128.4899366,"addr":"대구광역시 달성군 화원읍 비슬로 2480, 화남파출소","isOpenAtNight":"N","hasBell":"N","male":0,"female":1,"type":"공중화장실"},{"id":"202434800000100209","nm":"구지우체국","lat":35.6578325,"lng":128.413133,"addr":"대구광역시 달성군 구지면 창리로11길 18","isOpenAtNight":"N","hasBell":"N","male":3,"female":0,"type":"공중화장실"},{"id":"202434800000100220","nm":"경인주유소","lat":35.72702647,"lng":128.4362282,"addr":"대구광역시 달성군 논공읍 논공로 842","isOpenAtNight":"N","hasBell":"N","male":2,"female":2,"type":"개방화장실"},{"id":"202434800000100153","nm":"달성군청","lat":35.77466287,"lng":128.4313916,"addr":"대구광역시 달성군 논공읍 달성군청로 33 (달성군청)","isOpenAtNight":"N","hasBell":"N","male":66,"female":58,"type":"공중화장실"},{"id":"202434800000100138","nm":"상수도사업본부 달성사업소","lat":35.7,"lng":128.4433,"addr":"대구광역시 달성군 현풍읍 현풍중앙로 144-34","isOpenAtNight":"N","hasBell":"N","male":9,"female":8,"type":"공중화장실"},{"id":"202434800000100030","nm":"행운주유소","lat":35.7978,"lng":128.6245,"addr":"대구광역시 달성군 가창면 가창로 1045","isOpenAtNight":"N","hasBell":"N","male":3,"female":1,"type":"개방화장실"},{"id":"202334800000100624","nm":"옥포119안전센터","lat":35.781416,"lng":128.443749,"addr":"대구광역시 달성군 옥포읍 돌미로 93","isOpenAtNight":"N","hasBell":"Y","male":3,"female":3,"type":"개방화장실"},{"id":"202434800000100238","nm":"(주)캘리스코논공(대구) 휴게소","lat":35.7674,"lng":128.4034,"addr":"대구광역시 달성군 논공읍 광주대구고속도로 170","isOpenAtNight":"N","hasBell":"N","male":6,"female":20,"type":"개방화장실"},{"id":"202434800000100137","nm":"대구광역시립희망원","lat":35.80383523,"lng":128.5095826,"addr":"대구광역시 달성군 화원읍 명천로 58","isOpenAtNight":"N","hasBell":"N","male":4,"female":6,"type":"공중화장실"},{"id":"202434800000100078","nm":"옥포농협클린주유소","lat":35.78957257,"lng":128.468402,"addr":"대구광역시 달성군 옥포읍 비슬로 2259","isOpenAtNight":"N","hasBell":"N","male":2,"female":2,"type":"개방화장실"},{"id":"202434800000100237","nm":"(주)캘리스코논공(대구)(주유소)","lat":35.7662,"lng":128.402,"addr":"대구광역시 달성군 논공읍 광주대구고속도로 170","isOpenAtNight":"N","hasBell":"N","male":1,"female":2,"type":"개방화장실"},{"id":"202434800000100163","nm":"달성교육지원청","lat":35.7807,"lng":128.4344,"addr":"대구광역시 달성군 옥포읍 비슬로 1934","isOpenAtNight":"N","hasBell":"N","male":11,"female":26,"type":"공중화장실"},{"id":"202434800000100193","nm":"냉천음식지구(2)","lat":35.789362,"lng":128.636534,"addr":"대구광역시 달성군 가창면 가창로176길 14","isOpenAtNight":"N","hasBell":"Y","male":1,"female":1,"type":"공중화장실"},{"id":"202434800000100087","nm":"쌍용옥포주유소","lat":35.78439064,"lng":128.4759246,"addr":"대구광역시 달성군 옥포읍 옥포로 80","isOpenAtNight":"N","hasBell":"N","male":2,"female":0,"type":"개방화장실"},{"id":"202434800000100226","nm":"가창체육공원","lat":35.76720787,"lng":128.6507794,"addr":"대구광역시 달성군 가창면 가창로 604","isOpenAtNight":"N","hasBell":"Y","male":1,"female":4,"type":"공중화장실"},{"id":"202434800000100058","nm":"유가우체국","lat":35.67289199,"lng":128.4490233,"addr":"대구광역시 달성군 유가읍 비슬로64길 52-4, 유가우체국","isOpenAtNight":"N","hasBell":"N","male":1,"female":0,"type":"공중화장실"},{"id":"202434800000100029","nm":"현풍119안전센터","lat":35.6825,"lng":128.4469,"addr":"대구광역시 달성군 현풍읍 비슬로 480, 달성소방서","isOpenAtNight":"N","hasBell":"N","male":7,"female":8,"type":"공중화장실"},{"id":"202434800000100057","nm":"유가읍사무소","lat":35.6938854,"lng":128.4598183,"addr":"대구광역시 달성군 유가읍 테크노상업로 95, 유가읍사무소","isOpenAtNight":"N","hasBell":"N","male":8,"female":9,"type":"공중화장실"},{"id":"202434800000100141","nm":"대견사","lat":35.69631623,"lng":128.5296653,"addr":"대구광역시 달성군 유가읍 일연선사길 177, 대견사","isOpenAtNight":"N","hasBell":"Y","male":2,"female":5,"type":"공중화장실"},{"id":"202434800000100053","nm":"육신사(구)","lat":35.91116004,"lng":128.4165836,"addr":"대구광역시 달성군 하빈면 육신사길 64","isOpenAtNight":"N","hasBell":"N","male":2,"female":2,"type":"공중화장실"},{"id":"202334800000100626","nm":"달성테크노스포츠센터 화장실","lat":35.6845705,"lng":128.4628577,"addr":"대구광역시 달성군 유가읍 테크노순환로7길 38","isOpenAtNight":"N","hasBell":"Y","male":7,"female":17,"type":"개방화장실"},{"id":"202434800000100011","nm":"화원우체국","lat":35.80427921,"lng":128.4996786,"addr":"대구광역시 달성군 화원읍 비슬로 2589","isOpenAtNight":"N","hasBell":"N","male":2,"female":0,"type":"공중화장실"},{"id":"202434800000100142","nm":"달창저수지","lat":35.64070239,"lng":128.4821179,"addr":"대구광역시 달성군 유가읍 달창로 406-18","isOpenAtNight":"N","hasBell":"N","male":2,"female":4,"type":"간이화장실"},{"id":"202434800000100127","nm":"매곡119안전센터","lat":35.8611,"lng":128.4542,"addr":"대구광역시 달성군 다사읍 달구벌대로 753","isOpenAtNight":"N","hasBell":"N","male":4,"female":0,"type":"공중화장실"},{"id":"202434800000100183","nm":"논공농협주유소","lat":35.77599665,"lng":128.4253202,"addr":"대구광역시 달성군 논공읍 비슬로314길 57","isOpenAtNight":"N","hasBell":"N","male":1,"female":1,"type":"개방화장실"},{"id":"202434800000100177","nm":"논공현대주유소","lat":35.79929061,"lng":128.4871823,"addr":"대구광역시 달성군 논공읍 비슬로 1764","isOpenAtNight":"N","hasBell":"N","male":1,"female":0,"type":"개방화장실"},{"id":"202434800000100048","nm":"참빛주유소","lat":35.72025721,"lng":128.4521084,"addr":"대구광역시 달성군 논공읍 논공로 199","isOpenAtNight":"N","hasBell":"N","male":1,"female":1,"type":"개방화장실"},{"id":"202434800000100203","nm":"그린에너지프라자(충전소)","lat":35.77055327,"lng":128.4131255,"addr":"대구광역시 달성군 논공읍 비슬로 1705","isOpenAtNight":"N","hasBell":"N","male":1,"female":1,"type":"개방화장실"},{"id":"202434800000100104","nm":"상리체육공원","lat":35.697825,"lng":128.450936,"addr":"대구광역시 달성군 현풍읍 현풍동로 86","isOpenAtNight":"N","hasBell":"N","male":1,"female":1,"type":"공중화장실"},{"id":"202434800000100062","nm":"유가사 입구","lat":35.71472925,"lng":128.5073691,"addr":"대구광역시 달성군 유가읍 유가사길 161, 대한불교조계종 유가사","isOpenAtNight":"N","hasBell":"Y","male":2,"female":5,"type":"공중화장실"},{"id":"202434800000100195","nm":"냉천2리 마을회관","lat":35.77749815,"lng":128.6500857,"addr":"대구광역시 달성군 가창면 가창동로1길 22, 냉천2리마을회관","isOpenAtNight":"N","hasBell":"Y","male":1,"female":2,"type":"공중화장실"},{"id":"202434800000100251","nm":"도동유교문화관1","lat":35.4206,"lng":128.2216,"addr":"대구광역시 달성군 구지면 구지서로 716","isOpenAtNight":"N","hasBell":"N","male":0,"female":2,"type":"공중화장실"},{"id":"202434800000100112","nm":"비슬산휴양림주차장","lat":35.69334231,"lng":128.5058006,"addr":"대구광역시 달성군 유가읍 휴양림길 236","isOpenAtNight":"N","hasBell":"Y","male":2,"female":7,"type":"공중화장실"},{"id":"202434800000100080","nm":"옥포4호근린공원","lat":35.77976488,"lng":128.4403348,"addr":"대구광역시 달성군 옥포읍 돌미로 58","isOpenAtNight":"N","hasBell":"N","male":3,"female":5,"type":"공중화장실"},{"id":"202434800000100116","nm":"부성주유소","lat":35.78013857,"lng":128.4319852,"addr":"대구광역시 달성군 옥포읍 비슬로 1905","isOpenAtNight":"N","hasBell":"Y","male":2,"female":1,"type":"개방화장실"},{"id":"202434800000100106","nm":"산업단지1호근린공원","lat":35.64094216,"lng":128.4194242,"addr":"대구광역시 달성군 구지면 달성2차로 105","isOpenAtNight":"N","hasBell":"Y","male":1,"female":4,"type":"공중화장실"},{"id":"202434800000100036","nm":"하빈면보건지소","lat":35.90169144,"lng":128.4449513,"addr":"대구광역시 달성군 하빈면 하빈로 423, 하빈면보건지소","isOpenAtNight":"N","hasBell":"N","male":1,"female":2,"type":"공중화장실"},{"id":"202434800000100068","nm":"용연사주유소","lat":35.75858232,"lng":128.4927616,"addr":"대구광역시 달성군 옥포읍 옥포로 429","isOpenAtNight":"N","hasBell":"N","male":1,"female":2,"type":"개방화장실"},{"id":"202434800000100013","nm":"화원시장 주차장","lat":35.8012922,"lng":128.4990942,"addr":"대구광역시 달성군 화원읍 인흥길 33-4","isOpenAtNight":"N","hasBell":"N","male":1,"female":4,"type":"공중화장실"},{"id":"202434800000100254","nm":"국민건강보험공단 달성지사","lat":35.7747,"lng":128.4289,"addr":"대구광역시 달성군 논공읍 달성군청로 32","isOpenAtNight":"N","hasBell":"Y","male":6,"female":15,"type":"개방화장실"},{"id":"202434800000100102","nm":"서재셀프주유소","lat":35.86843567,"lng":128.4938099,"addr":"대구광역시 달성군 다사읍 서재로 39","isOpenAtNight":"N","hasBell":"N","male":1,"female":1,"type":"개방화장실"},{"id":"202434800000100125","nm":"매곡근린공원","lat":35.8623,"lng":128.4696,"addr":"대구광역시 달성군 다사읍 대실역북로2길 91","isOpenAtNight":"N","hasBell":"Y","male":2,"female":5,"type":"공중화장실"},{"id":"202434800000100042","nm":"테크노폴리스중앙공원","lat":35.69141534,"lng":128.4595877,"addr":"대구광역시 달성군 유가읍 테크노공원로 60","isOpenAtNight":"N","hasBell":"N","male":3,"female":5,"type":"공중화장실"},{"id":"202434800000100213","nm":"구지1호 공원 파크골프장","lat":35.6428,"lng":128.4198,"addr":"대구광역시 달성군 구지면 국가산단대로28길 18","isOpenAtNight":"N","hasBell":"N","male":1,"female":1,"type":"공중화장실"},{"id":"202434800000100003","nm":"환경시설관리공사 달성사업소","lat":35.72397561,"lng":128.4368766,"addr":"대구광역시 달성군 논공읍 논공중앙로 13","isOpenAtNight":"N","hasBell":"N","male":2,"female":2,"type":"공중화장실"},{"id":"202434800000100143","nm":"달성주유소(충전소)","lat":35.71173479,"lng":128.4428886,"addr":"대구광역시 달성군 현풍읍 논공로 66","isOpenAtNight":"N","hasBell":"N","male":1,"female":1,"type":"개방화장실"},{"id":"202434800000100207","nm":"구지파출소","lat":35.6595,"lng":128.4134,"addr":"대구광역시 달성군 구지면 창리로11길 51","isOpenAtNight":"N","hasBell":"N","male":1,"female":1,"type":"공중화장실"},{"id":"202434800000100178","nm":"논공파출소","lat":35.77287218,"lng":128.4191557,"addr":"대구광역시 달성군 논공읍 비슬로 1788","isOpenAtNight":"N","hasBell":"N","male":1,"female":0,"type":"개방화장실"},{"id":"202434800000100117","nm":"봄봄봄주유소(충전소)","lat":35.6402304,"lng":128.4238364,"addr":"대구광역시 달성군 구지면 달성2차로 159","isOpenAtNight":"N","hasBell":"N","male":1,"female":2,"type":"개방화장실"},{"id":"202434800000100121","nm":"문산LPG충전소","lat":35.86054772,"lng":128.4326377,"addr":"대구광역시 달성군 다사읍 달구벌대로 432","isOpenAtNight":"N","hasBell":"N","male":1,"female":1,"type":"개방화장실"},{"id":"202434800000100239","nm":"(주)캘리스코논공(광주)(주유소)","lat":35.7654,"lng":128.4032,"addr":"대구광역시 달성군 논공읍 광주대구고속도로 169","isOpenAtNight":"N","hasBell":"N","male":1,"female":2,"type":"개방화장실"},{"id":"202434800000100174","nm":"다사농협클린주유소","lat":35.87101938,"lng":128.4964802,"addr":"대구광역시 달성군 다사읍 서재로 83","isOpenAtNight":"N","hasBell":"Y","male":1,"female":1,"type":"개방화장실"},{"id":"202434800000100038","nm":"하빈농협클린주유소","lat":35.89974049,"lng":128.4405209,"addr":"대구광역시 달성군 하빈면 하빈로 380","isOpenAtNight":"N","hasBell":"Y","male":1,"female":2,"type":"개방화장실"},{"id":"202434800000100145","nm":"달성종합스포츠파크","lat":35.7017,"lng":128.4414,"addr":"대구광역시 달성군 현풍읍 현풍동로 170, 달성종합스포츠파크","isOpenAtNight":"N","hasBell":"Y","male":7,"female":8,"type":"공중화장실"},{"id":"202434800000100262","nm":"하빈(부산)졸음쉼터","lat":35.9319,"lng":128.4737,"addr":"대구광역시 달성군 하빈면 경부고속도로 147","isOpenAtNight":"N","hasBell":"Y","male":0,"female":2,"type":"간이화장실"},{"id":"202434800000100001","nm":"흥구석유(주) 현풍고속주유소","lat":35.67182031,"lng":128.4461147,"addr":"대구광역시 달성군 현풍읍 국가산단북로 531","isOpenAtNight":"N","hasBell":"N","male":2,"female":2,"type":"개방화장실"},{"id":"202434800000100008","nm":"화원파출소","lat":35.8025,"lng":128.507,"addr":"대구광역시 달성군 화원읍 비슬로 2595","isOpenAtNight":"N","hasBell":"N","male":0,"female":0,"type":"공중화장실"},{"id":"202434800000100244","nm":"(주)미니이주유소","lat":35.8772,"lng":128.4964,"addr":"대구광역시 달성군 다사읍 서재로31길 2","isOpenAtNight":"N","hasBell":"N","male":1,"female":0,"type":"개방화장실"},{"id":"202434800000100075","nm":"옥포파출소","lat":35.79036662,"lng":128.4721506,"addr":"대구광역시 달성군 옥포읍 비슬로 2294, 옥포파출소","isOpenAtNight":"N","hasBell":"N","male":0,"female":0,"type":"공중화장실"},{"id":"202434800000100210","nm":"구지시장","lat":35.65757246,"lng":128.4113308,"addr":"대구광역시 달성군 구지면 구지시장길 46-8, 구지면 노인회관","isOpenAtNight":"N","hasBell":"Y","male":2,"female":5,"type":"공중화장실"},{"id":"202434800000100214","nm":"구지119안전센터","lat":35.64005341,"lng":128.4189801,"addr":"대구광역시 달성군 구지면 달성2차로 111","isOpenAtNight":"N","hasBell":"N","male":3,"female":1,"type":"공중화장실"},{"id":"202434800000100088","nm":"쌍계오거리","lat":35.7004,"lng":128.4695,"addr":"대구광역시 달성군 유가읍 휴양림길 685","isOpenAtNight":"N","hasBell":"Y","male":2,"female":5,"type":"공중화장실"},{"id":"202434800000100051","nm":"정대2리마을쉼터","lat":35.74783696,"lng":128.5564432,"addr":"대구광역시 달성군 가창면 헐티로2길 2","isOpenAtNight":"N","hasBell":"N","male":1,"female":1,"type":"공중화장실"},{"id":"202434800000100171","nm":"다사왕선주유소","lat":35.86293647,"lng":128.4641215,"addr":"대구광역시 달성군 다사읍 다사로 11","isOpenAtNight":"N","hasBell":"N","male":1,"female":2,"type":"개방화장실"},{"id":"202434800000100037","nm":"하빈대교주유소","lat":35.87825614,"lng":128.3986237,"addr":"대구광역시 달성군 하빈면 하빈남로 600","isOpenAtNight":"N","hasBell":"N","male":3,"female":0,"type":"개방화장실"},{"id":"202434800000100222","nm":"강변야구장","lat":35.7546,"lng":128.3938,"addr":"대구광역시 달성군 논공읍 성산로 1232-40","isOpenAtNight":"N","hasBell":"Y","male":1,"female":1,"type":"간이화장실"},{"id":"202434800000100047","nm":"창리근린공원","lat":35.655379,"lng":128.414063,"addr":"대구광역시 달성군 구지면 과학마을로 16","isOpenAtNight":"N","hasBell":"Y","male":1,"female":4,"type":"공중화장실"},{"id":"202334800000100642","nm":"환경자원사업소 축구장","lat":35.8826,"lng":128.5097,"addr":"대구광역시 달성군 다사읍 다사로820","isOpenAtNight":"N","hasBell":"N","male":0,"female":1,"type":"공중화장실"},{"id":"202434800000100196","nm":"남평문씨본리세거지 주차장","lat":35.79220304,"lng":128.5183876,"addr":"대구광역시 달성군 화원읍 인흥길 253","isOpenAtNight":"N","hasBell":"Y","male":2,"female":5,"type":"공중화장실"},{"id":"202434800000100246","nm":"환경자원사업소 테니스장","lat":35.8869,"lng":128.5099,"addr":"대구광역시 달성군 다사읍 다사로 781","isOpenAtNight":"N","hasBell":"N","male":3,"female":8,"type":"공중화장실"},{"id":"202434800000100194","nm":"냉천음식지구","lat":35.789676,"lng":128.632962,"addr":"대구광역시 달성군 가창면 가창로176길 47","isOpenAtNight":"N","hasBell":"Y","male":1,"female":3,"type":"공중화장실"},{"id":"202334800000100619","nm":"다사지구대","lat":35.8739762,"lng":128.4745608,"addr":"대구광역시 달성군 다사읍 세천로 100","isOpenAtNight":"N","hasBell":"N","male":1,"female":1,"type":"개방화장실"},{"id":"202434800000100173","nm":"다사읍보건지소","lat":35.86202314,"lng":128.4542036,"addr":"대구광역시 달성군 다사읍 매곡로 7","isOpenAtNight":"N","hasBell":"N","male":2,"female":2,"type":"공중화장실"},{"id":"202334800000100637","nm":"달성습지 생태 학습관","lat":35.8165136,"lng":128.4869776,"addr":"대구광역시 달성군 화원읍 구라1길 88","isOpenAtNight":"N","hasBell":"Y","male":2,"female":4,"type":"개방화장실"},{"id":"202434800000100066","nm":"우리최고주유소","lat":35.8092088,"lng":128.4807192,"addr":"대구광역시 달성군 화원읍 사문진로 285","isOpenAtNight":"N","hasBell":"N","male":2,"female":2,"type":"개방화장실"},{"id":"202434800000100146","nm":"달성우체국","lat":35.69469798,"lng":128.4399435,"addr":"대구광역시 달성군 현풍읍 비슬로130길 7, 달성우체국","isOpenAtNight":"N","hasBell":"N","male":6,"female":6,"type":"공중화장실"},{"id":"202434800000100186","nm":"논공가톨릭치매센타","lat":35.72108832,"lng":128.4537325,"addr":"대구광역시 달성군 논공읍 논공로 210","isOpenAtNight":"N","hasBell":"N","male":3,"female":6,"type":"개방화장실"},{"id":"202434800000100164","nm":"달성공단우체국","lat":35.73048738,"lng":128.4527097,"addr":"대구광역시 달성군 논공읍 논공중앙로33길 9","isOpenAtNight":"N","hasBell":"N","male":3,"female":0,"type":"공중화장실"},{"id":"202434800000100005","nm":"화원휴양림관리사무소","lat":35.77179173,"lng":128.5367385,"addr":"대구광역시 달성군 화원읍 화원휴양림길 126, 화원자연휴양림","isOpenAtNight":"N","hasBell":"N","male":1,"female":2,"type":"공중화장실"},{"id":"202434800000100168","nm":"다사읍서재출장소","lat":35.86481448,"lng":128.4573053,"addr":"대구광역시 달성군 다사읍 서재본길 25","isOpenAtNight":"N","hasBell":"N","male":6,"female":6,"type":"공중화장실"},{"id":"202434800000100250","nm":"강변오토캠핑장2","lat":35.402,"lng":128.2202,"addr":"대구광역시 달성군 구지면 구지서로 199, 낙동강 레포츠밸리 수상레저센터","isOpenAtNight":"N","hasBell":"Y","male":2,"female":5,"type":"개방화장실"},{"id":"202434800000100020","nm":"현풍휴게소(상행)대구방향","lat":35.70201511,"lng":128.4384797,"addr":"대구광역시 달성군 현풍읍 비슬로 741, 현풍휴게소","isOpenAtNight":"N","hasBell":"N","male":20,"female":22,"type":"개방화장실"},{"id":"202434800000100231","nm":"가창LPG충전소","lat":35.79321978,"lng":128.6290593,"addr":"대구광역시 달성군 가창면 가창로199길 19","isOpenAtNight":"N","hasBell":"N","male":1,"female":1,"type":"개방화장실"},{"id":"202434800000100234","nm":"KT달성지사","lat":35.69246008,"lng":128.447402,"addr":"대구광역시 달성군 현풍읍 현풍동로 13, 달성전화국","isOpenAtNight":"N","hasBell":"N","male":6,"female":4,"type":"공중화장실"},{"id":"202334800000100620","nm":"국립대구청소년디딤센터 화장실","lat":35.63101,"lng":128.433,"addr":"대구광역시 달성군 구지면 국가산단남로 609","isOpenAtNight":"N","hasBell":"N","male":4,"female":7,"type":"공중화장실"},{"id":"202434800000100218","nm":"고봉리(고봉농협 옆)","lat":35.6509,"lng":128.4384,"addr":"대구광역시 달성군 구지면 구지동로 51","isOpenAtNight":"N","hasBell":"N","male":1,"female":1,"type":"공중화장실"},{"id":"202434800000100136","nm":"대구요양원","lat":35.7461033,"lng":128.4778394,"addr":"대구광역시 달성군 논공읍 논공중앙로 453","isOpenAtNight":"N","hasBell":"N","male":8,"female":7,"type":"공중화장실"},{"id":"202434800000100100","nm":"성진주유소","lat":35.6351,"lng":128.4425,"addr":"대구광역시 달성군 구지면 국가산단남로 688","isOpenAtNight":"N","hasBell":"N","male":1,"female":2,"type":"개방화장실"},{"id":"202434800000100123","nm":"명곡우체국","lat":35.79762611,"lng":128.4969872,"addr":"대구광역시 달성군 화원읍 화암로 76","isOpenAtNight":"N","hasBell":"N","male":1,"female":1,"type":"공중화장실"},{"id":"202434800000100201","nm":"금호강변(세천파크골프장)","lat":35.8667,"lng":128.4654,"addr":"대구광역시 달성군 다사읍 왕선로 82","isOpenAtNight":"N","hasBell":"Y","male":2,"female":3,"type":"간이화장실"},{"id":"202434800000100099","nm":"세명공단주유소","lat":35.87700972,"lng":128.4729064,"addr":"대구광역시 달성군 다사읍 세천로21길 38","isOpenAtNight":"N","hasBell":"N","male":1,"female":2,"type":"개방화장실"},{"id":"202434800000100167","nm":"다사읍주민자치센터","lat":35.8901191,"lng":128.4779466,"addr":"대구광역시 달성군 다사읍 매곡로12길 37, 다사읍주민자치센터","isOpenAtNight":"N","hasBell":"N","male":6,"female":6,"type":"공중화장실"},{"id":"202334800000100640","nm":"논공읍보건지소","lat":35.774111,"lng":128.38645,"addr":"대구광역시 달성군 논공읍 비슬로 1779","isOpenAtNight":"N","hasBell":"N","male":1,"female":1,"type":"개방화장실"},{"id":"202434800000100045","nm":"첨단산업단지근린공원","lat":35.8687,"lng":128.474,"addr":"대구광역시 달성군 다사읍 세천남로 89","isOpenAtNight":"N","hasBell":"Y","male":2,"female":4,"type":"공중화장실"},{"id":"202434800000100021","nm":"현풍하이패스주유소","lat":35.70170463,"lng":128.4397248,"addr":"대구광역시 달성군 현풍읍 비슬로 732","isOpenAtNight":"N","hasBell":"N","male":1,"female":1,"type":"개방화장실"},{"id":"202434800000100067","nm":"용연사주차장","lat":35.75195809,"lng":128.5111399,"addr":"대구광역시 달성군 옥포읍 용연사길 168, 용연사매표소","isOpenAtNight":"N","hasBell":"Y","male":3,"female":4,"type":"공중화장실"},{"id":"202434800000100198","nm":"구지오토캠핑장","lat":35.4017,"lng":128.222,"addr":"대구광역시 달성군 구지면 구지서로 199","isOpenAtNight":"N","hasBell":"Y","male":1,"female":3,"type":"공중화장실"},{"id":"202334800000100627","nm":"역사문화체험관","lat":35.8135727,"lng":128.4818342,"addr":"대구광역시 달성군 화원읍 사문진로1길 40-14","isOpenAtNight":"N","hasBell":"N","male":2,"female":7,"type":"공중화장실"},{"id":"202434800000100165","nm":"다사치안센터","lat":35.86222607,"lng":128.4588123,"addr":"대구광역시 달성군 다사읍 달구벌대로 800-1","isOpenAtNight":"N","hasBell":"N","male":2,"female":1,"type":"공중화장실"},{"id":"202434800000100027","nm":"현풍농협주유소","lat":35.696,"lng":128.4525,"addr":"대구광역시 달성군 현풍읍 테크노북로 87","isOpenAtNight":"N","hasBell":"N","male":1,"female":1,"type":"개방화장실"},{"id":"202334800000100628","nm":"화원동산 전망대","lat":35.812445,"lng":128.4834465,"addr":"대구광역시 달성군 화원읍 사문진로1길 40-14","isOpenAtNight":"N","hasBell":"Y","male":2,"female":5,"type":"개방화장실"},{"id":"202434800000100230","nm":"가창농협주유소","lat":35.80435376,"lng":128.6232422,"addr":"대구광역시 달성군 가창면 가창로 1124","isOpenAtNight":"N","hasBell":"N","male":1,"female":1,"type":"개방화장실"},{"id":"202434800000100248","nm":"뿌리광장","lat":35.776846,"lng":128.429579,"addr":"대구광역시 달성군 논공읍 달성군청로3길 14","isOpenAtNight":"N","hasBell":"Y","male":1,"female":3,"type":"공중화장실"},{"id":"202434800000100083","nm":"여성문화복지센터(별관)","lat":35.7988,"lng":128.4888,"addr":"대구광역시 달성군 화원읍 성천로 5, 달성군여성문화복지센터","isOpenAtNight":"N","hasBell":"Y","male":7,"female":14,"type":"공중화장실"},{"id":"202434800000100002","nm":"흥구석유(주) 달성공단 주유소","lat":35.73119832,"lng":128.4521582,"addr":"대구광역시 달성군 논공읍 논공중앙로33길 21","isOpenAtNight":"N","hasBell":"N","male":0,"female":1,"type":"개방화장실"},{"id":"202434800000100188","nm":"논공119안전센터","lat":35.73010163,"lng":128.4530122,"addr":"대구광역시 달성군 논공읍 논공중앙로33길 5","isOpenAtNight":"N","hasBell":"N","male":2,"female":0,"type":"공중화장실"},{"id":"202434800000100132","nm":"도동서원","lat":35.70079791,"lng":128.3716864,"addr":"대구광역시 달성군 구지면 구지서로 726","isOpenAtNight":"N","hasBell":"Y","male":1,"female":2,"type":"공중화장실"},{"id":"202434800000100060","nm":"유가사등산로","lat":35.7131,"lng":128.5055,"addr":"대구광역시 달성군 유가읍 유가사길 197","isOpenAtNight":"N","hasBell":"Y","male":2,"female":5,"type":"공중화장실"},{"id":"202434800000100140","nm":"대견사전기차회차지","lat":35.69631623,"lng":128.5296653,"addr":"대구광역시 달성군 유가읍 일연선사길 177, 대견사","isOpenAtNight":"N","hasBell":"Y","male":2,"female":3,"type":"공중화장실"},{"id":"202434800000100150","nm":"달성문화원","lat":35.69888271,"lng":128.451977,"addr":"대구광역시 달성군 현풍읍 현풍동로 92, 달성문화원","isOpenAtNight":"N","hasBell":"N","male":6,"female":5,"type":"공중화장실"},{"id":"202434800000100249","nm":"강변오토캠핑장1","lat":35.4019,"lng":128.2202,"addr":"대구광역시 달성군 구지면 구지서로 199, 낙동강 레포츠밸리 수상레저센터","isOpenAtNight":"N","hasBell":"Y","male":2,"female":5,"type":"개방화장실"},{"id":"202434800000100148","nm":"달성산업단지관리공단","lat":35.72969265,"lng":128.4540436,"addr":"대구광역시 달성군 논공읍 논공중앙로34길 1","isOpenAtNight":"N","hasBell":"N","male":2,"female":2,"type":"공중화장실"},{"id":"202434800000100024","nm":"현풍주유소(대구방향)","lat":35.70201511,"lng":128.4384797,"addr":"대구광역시 달성군 현풍읍 비슬로 741","isOpenAtNight":"N","hasBell":"N","male":2,"female":0,"type":"개방화장실"},{"id":"202434800000100232","nm":"가창119안전센터","lat":35.7624,"lng":128.6508,"addr":"대구광역시 달성군 가창면 가창로 547","isOpenAtNight":"N","hasBell":"N","male":1,"female":2,"type":"공중화장실"},{"id":"202434800000100157","nm":"달성군민체육관","lat":35.7008,"lng":128.4411,"addr":"대구광역시 달성군 현풍읍 현풍중앙로 130, 달성군민체육관","isOpenAtNight":"N","hasBell":"Y","male":4,"female":5,"type":"공중화장실"},{"id":"202434800000100169","nm":"다사읍사무소","lat":35.87222571,"lng":128.4942619,"addr":"대구광역시 달성군 다사읍 매곡로 7","isOpenAtNight":"N","hasBell":"N","male":7,"female":6,"type":"공중화장실"},{"id":"202434800000100040","nm":"포산주유소","lat":35.69016498,"lng":128.4452086,"addr":"대구광역시 달성군 현풍읍 비슬로 575","isOpenAtNight":"N","hasBell":"N","male":2,"female":2,"type":"개방화장실"},{"id":"202434800000100176","nm":"농협농수산물유통센터","lat":35.78789322,"lng":128.4582974,"addr":"대구광역시 달성군 화원읍 성천로 9","isOpenAtNight":"N","hasBell":"N","male":24,"female":23,"type":"공중화장실"},{"id":"202434800000100015","nm":"화원농협주유소","lat":35.80467867,"lng":128.4945221,"addr":"대구광역시 달성군 화원읍 사문진로 420","isOpenAtNight":"N","hasBell":"N","male":1,"female":2,"type":"개방화장실"},{"id":"202434800000100144","nm":"달성주민건강증진센터","lat":35.78954097,"lng":128.4712815,"addr":"대구광역시 달성군 옥포읍 비슬로458길 6-2, 달성주민건강증진센터","isOpenAtNight":"N","hasBell":"N","male":6,"female":12,"type":"공중화장실"},{"id":"202434800000100033","nm":"하빈파출소","lat":37.5531163,"lng":126.8331774,"addr":"대구광역시 달성군 하빈면 달구벌대로55길 58-4","isOpenAtNight":"N","hasBell":"N","male":3,"female":1,"type":"공중화장실"},{"id":"202334800000100639","nm":"하빈행복생활문화센터","lat":35.934,"lng":128.4666,"addr":"대구광역시 달성군 하빈면 하빈로172길 1","isOpenAtNight":"N","hasBell":"Y","male":4,"female":4,"type":"개방화장실"},{"id":"202434800000100215","nm":"구름주유소","lat":35.73229119,"lng":128.6658944,"addr":"대구광역시 달성군 가창면 가창로 169","isOpenAtNight":"N","hasBell":"N","male":1,"female":2,"type":"개방화장실"},{"id":"202434800000100241","nm":"(주)조광주유소","lat":35.873,"lng":128.4717,"addr":"대구광역시 달성군 다사읍 세천로 98","isOpenAtNight":"N","hasBell":"N","male":1,"female":1,"type":"개방화장실"},{"id":"202434800000100093","nm":"송해공원 제2주차장","lat":35.7685,"lng":128.4887,"addr":"대구광역시 달성군 옥포읍 옥포로 306-32","isOpenAtNight":"N","hasBell":"Y","male":2,"female":5,"type":"공중화장실"},{"id":"202334800000100623","nm":"낙동강물환경연구소","lat":35.653433,"lng":128.422212,"addr":"대구광역시 달성군 구지면 국가산단대로52길 24-11","isOpenAtNight":"N","hasBell":"Y","male":8,"female":14,"type":"공중화장실"},{"id":"202434800000100139","nm":"대견사전기차회차지장애인화장실","lat":35.69631623,"lng":128.5296653,"addr":"대구광역시 달성군 유가읍 일연선사길 177, 대견사","isOpenAtNight":"N","hasBell":"Y","male":0,"female":0,"type":"공중화장실"},{"id":"202434800000100129","nm":"마비정벽화마을","lat":35.77876851,"lng":128.5416123,"addr":"대구광역시 달성군 화원읍 마비정길 262-5","isOpenAtNight":"N","hasBell":"Y","male":1,"female":2,"type":"공중화장실"},{"id":"202434800000100257","nm":"달성농수산물유통센터","lat":35.6924,"lng":128.4631,"addr":"대구광역시 달성군 유가읍 테크노공원로 91","isOpenAtNight":"N","hasBell":"Y","male":1,"female":4,"type":"개방화장실"},{"id":"202434800000100235","nm":"GS칼텍스(주) 유천IC주유소","lat":35.8034,"lng":128.4897,"addr":"대구광역시 달성군 화원읍 성천로 66","isOpenAtNight":"N","hasBell":"N","male":1,"female":2,"type":"개방화장실"},{"id":"202434800000100122","nm":"명곡체육공원","lat":35.79768772,"lng":128.5036032,"addr":"대구광역시 달성군 화원읍 인흥1길 12","isOpenAtNight":"N","hasBell":"Y","male":2,"female":7,"type":"공중화장실"},{"id":"202434800000100204","nm":"국민주유소","lat":35.70047073,"lng":128.4413213,"addr":"대구광역시 달성군 화원읍 사문진로 339","isOpenAtNight":"N","hasBell":"N","male":1,"female":2,"type":"개방화장실"},{"id":"202434800000100014","nm":"화원명곡숲","lat":35.7969,"lng":128.4913,"addr":"대구광역시 달성군 화원읍 화암로 26","isOpenAtNight":"N","hasBell":"Y","male":1,"female":3,"type":"공중화장실"},{"id":"202434800000100128","nm":"맛정한식뷔페","lat":35.7902,"lng":128.4714,"addr":"대구광역시 달성군 옥포읍 비슬로 2288","isOpenAtNight":"N","hasBell":"N","male":1,"female":2,"type":"개방화장실"},{"id":"202434800000100056","nm":"유가파출소","lat":35.69388838,"lng":128.4604636,"addr":"대구광역시 달성군 유가읍 테크노상업로 99","isOpenAtNight":"N","hasBell":"N","male":3,"female":2,"type":"공중화장실"},{"id":"202434800000100010","nm":"화원유원지 축구장","lat":35.8088591,"lng":12.84761649,"addr":"대구광역시 달성군 화원읍 사문진로1길 33-18","isOpenAtNight":"N","hasBell":"Y","male":1,"female":2,"type":"공중화장실"},{"id":"202434800000100240","nm":"(주)캘리스코논공(광주) 휴게소","lat":35.7645,"lng":128.4025,"addr":"대구광역시 달성군 논공읍 광주대구고속도로 169, 휴게소","isOpenAtNight":"N","hasBell":"N","male":6,"female":2,"type":"개방화장실"},{"id":"202434800000100077","nm":"옥포우체국","lat":35.78924402,"lng":128.4640116,"addr":"대구광역시 달성군 옥포읍 비슬로 2302, 옥포우체국","isOpenAtNight":"N","hasBell":"N","male":0,"female":0,"type":"공중화장실"},{"id":"202434800000100050","nm":"죽곡근린공원","lat":35.8521,"lng":128.4658,"addr":"대구광역시 달성군 다사읍 대실역남로1길 12","isOpenAtNight":"N","hasBell":"Y","male":2,"female":5,"type":"공중화장실"},{"id":"202434800000100208","nm":"구지주유소","lat":35.65930274,"lng":128.413253,"addr":"대구광역시 달성군 현풍읍 국가산단북로 368","isOpenAtNight":"N","hasBell":"N","male":1,"female":2,"type":"개방화장실"},{"id":"202434800000100109","nm":"비슬산휴양림캠핑장관리사무소","lat":35.69173056,"lng":128.5093538,"addr":"대구광역시 달성군 유가읍 일연선사길 99, 비슬산자연휴양림","isOpenAtNight":"N","hasBell":"N","male":4,"female":4,"type":"공중화장실"},{"id":"202434800000100267","nm":"달성영업소","lat":35.7648,"lng":128.4769,"addr":"대구광역시 달성군 옥포읍 송촌길 229","isOpenAtNight":"N","hasBell":"N","male":2,"female":3,"type":"개방화장실"},{"id":"202434800000100091","nm":"송해공원 제3주차장(2)","lat":35.7809,"lng":128.48,"addr":"대구광역시 달성군 옥포읍 옥포로 126-18","isOpenAtNight":"N","hasBell":"Y","male":1,"female":2,"type":"공중화장실"},{"id":"202434800000100114","nm":"비슬산휴양림관리사무소","lat":35.69003191,"lng":128.5129075,"addr":"대구광역시 달성군 유가읍 일연선사길 61","isOpenAtNight":"N","hasBell":"N","male":3,"female":4,"type":"공중화장실"},{"id":"202434800000100166","nm":"다사체육공원","lat":35.87335045,"lng":128.488158,"addr":"대구광역시 달성군 다사읍 다사로 441","isOpenAtNight":"N","hasBell":"Y","male":1,"female":4,"type":"개방화장실"},{"id":"202434800000100009","nm":"화원유원지주유소","lat":35.80762231,"lng":128.4873964,"addr":"대구광역시 달성군 화원읍 사문진로 346","isOpenAtNight":"N","hasBell":"N","male":1,"female":2,"type":"개방화장실"},{"id":"202434800000100199","nm":"수상레저지원센터","lat":35.6723234,"lng":128.3706819,"addr":"대구광역시 달성군 구지면 구지서로 199","isOpenAtNight":"N","hasBell":"N","male":3,"female":5,"type":"개방화장실"},{"id":"202434800000100206","nm":"국가산단3호근린공원","lat":35.65375517,"lng":128.4270666,"addr":"대구광역시 달성군 구지면 국가산단대로32길 34","isOpenAtNight":"N","hasBell":"N","male":2,"female":4,"type":"공중화장실"},{"id":"202434800000100191","nm":"노이리 간이화장실","lat":35.7641,"lng":128.4588,"addr":"대구광역시 달성군 논공읍 비슬로420길 243","isOpenAtNight":"N","hasBell":"N","male":1,"female":1,"type":"간이화장실"},{"id":"202334800000100641","nm":"농촌진흥청 국립식량과학원","lat":35.9085428,"lng":128.4485033,"addr":"대구광역시 달성군 하빈면 하빈로 486","isOpenAtNight":"N","hasBell":"N","male":4,"female":5,"type":"공중화장실"},{"id":"202334800000100634","nm":"디아크 문화관","lat":35.838813,"lng":128.4682,"addr":"대구광역시 달성군 다사읍 강정본길 57","isOpenAtNight":"N","hasBell":"N","male":3,"female":7,"type":"개방화장실"},{"id":"202434800000100181","nm":"논공읍공단출장소","lat":35.77427277,"lng":128.420333,"addr":"대구광역시 달성군 논공읍 논공중앙로33길 3","isOpenAtNight":"N","hasBell":"N","male":2,"female":1,"type":"공중화장실"},{"id":"202434800000100154","nm":"달성군종합사회복지관","lat":35.73043842,"lng":128.4519882,"addr":"대구광역시 달성군 논공읍 논공로 697-9","isOpenAtNight":"N","hasBell":"N","male":2,"female":2,"type":"공중화장실"},{"id":"202434800000100064","nm":"원오교 파크골프장","lat":35.691,"lng":128.419,"addr":"대구광역시 달성군 현풍읍 현풍서로 198","isOpenAtNight":"N","hasBell":"N","male":1,"female":2,"type":"간이화장실"},{"id":"202434800000100147","nm":"달성시립도서관","lat":35.69852242,"lng":128.4477723,"addr":"대구광역시 달성군 현풍읍 현풍동로19길 26, 대구광역시립달성도서관","isOpenAtNight":"N","hasBell":"N","male":4,"female":5,"type":"공중화장실"},{"id":"202434800000100185","nm":"논공공단주유소","lat":35.72889058,"lng":128.4325614,"addr":"대구광역시 달성군 논공읍 비슬로 1052","isOpenAtNight":"N","hasBell":"N","male":3,"female":2,"type":"개방화장실"},{"id":"202334800000100615","nm":"국가물산업클러스터","lat":35.6469,"lng":128.4194,"addr":"대구광역시 달성군 구지면 국가산단대로40길 20","isOpenAtNight":"N","hasBell":"Y","male":62,"female":72,"type":"개방화장실"},{"id":"202434800000100111","nm":"비슬산휴양림주차장매점","lat":35.69334412,"lng":128.5058006,"addr":"대구광역시 달성군 유가읍 휴양림길 236","isOpenAtNight":"N","hasBell":"N","male":3,"female":5,"type":"공중화장실"},{"id":"202434800000100126","nm":"매곡CNG충전소","lat":35.85313427,"lng":128.4484575,"addr":"대구광역시 달성군 다사읍 달구벌대로 701-45","isOpenAtNight":"N","hasBell":"N","male":2,"female":1,"type":"개방화장실"},{"id":"202434800000100130","nm":"마비정버스정류장","lat":35.77873447,"lng":128.5420186,"addr":"대구광역시 달성군 화원읍 마비정길 262-4","isOpenAtNight":"N","hasBell":"N","male":1,"female":1,"type":"공중화장실"},{"id":"202434800000100160","nm":"달성군농업기술센터","lat":35.782106,"lng":128.446734,"addr":"대구광역시 달성군 옥포읍 비슬로 2040, 달성군농업기술센터","isOpenAtNight":"N","hasBell":"N","male":9,"female":9,"type":"공중화장실"},{"id":"202434800000100031","nm":"한정리파크골프장","lat":35.6456,"lng":128.4589,"addr":"대구광역시 달성군 유가읍 달창로26길 17","isOpenAtNight":"N","hasBell":"N","male":2,"female":4,"type":"간이화장실"},{"id":"202434800000100118","nm":"보성주유소","lat":35.74901903,"lng":128.406324,"addr":"대구광역시 달성군 논공읍 비슬로 1380","isOpenAtNight":"N","hasBell":"N","male":3,"female":5,"type":"개방화장실"},{"id":"202434800000100061","nm":"유가사 주차장(구)","lat":35.71472925,"lng":128.5073691,"addr":"대구광역시 달성군 유가읍 유가사길 144","isOpenAtNight":"N","hasBell":"Y","male":3,"female":7,"type":"공중화장실"},{"id":"202334800000100618","nm":"청소년문화의 집","lat":35.802352,"lng":128.623385,"addr":"대구광역시 달성군 가창면 가창로220길 8","isOpenAtNight":"N","hasBell":"N","male":2,"female":7,"type":"개방화장실"},{"id":"202434800000100134","nm":"대실근린공원","lat":35.8536,"lng":128.4692,"addr":"대구광역시 달성군 다사읍 대실역남로3길 38","isOpenAtNight":"N","hasBell":"Y","male":2,"female":4,"type":"공중화장실"},{"id":"202434800000100149","nm":"달성보주유소(전 대림주유소)","lat":35.73125305,"lng":128.4285055,"addr":"대구광역시 달성군 논공읍 비슬로 1096","isOpenAtNight":"N","hasBell":"N","male":1,"female":0,"type":"개방화장실"},{"id":"202434800000100247","nm":"환경자원사업소 목교화장실","lat":35.8859,"lng":128.5057,"addr":"대구광역시 달성군 다사읍 다사로 749","isOpenAtNight":"N","hasBell":"N","male":3,"female":8,"type":"공중화장실"},{"id":"202434800000100131","nm":"동화주유소","lat":35.66531236,"lng":128.4296267,"addr":"대구광역시 달성군 현풍읍 국가산단북로 356","isOpenAtNight":"N","hasBell":"N","male":1,"female":2,"type":"개방화장실"},{"id":"202434800000100219","nm":"고래들공원","lat":35.6957,"lng":128.4534,"addr":"대구광역시 달성군 현풍읍 테크노북로 92","isOpenAtNight":"N","hasBell":"Y","male":1,"female":3,"type":"공중화장실"},{"id":"202434800000100049","nm":"진천천","lat":35.8142,"lng":128.5045,"addr":"대구광역시 달성군 화원읍 진천천남자전거길 152","isOpenAtNight":"N","hasBell":"Y","male":1,"female":2,"type":"공중화장실"},{"id":"202434800000100187","nm":"논공CNG충전소","lat":35.74067404,"lng":128.4253135,"addr":"대구광역시 달성군 논공읍 약산덧재길 56","isOpenAtNight":"N","hasBell":"N","male":1,"female":0,"type":"개방화장실"},{"id":"202434800000100233","nm":"가람주유소(충전소)","lat":35.70710228,"lng":128.4365955,"addr":"대구광역시 달성군 현풍읍 비슬로 799","isOpenAtNight":"N","hasBell":"N","male":1,"female":1,"type":"개방화장실"},{"id":"202434800000100292","nm":"용계체육공원","lat":35.800547,"lng":128.621793,"addr":"대구광역시 달성군 가창로 1081-12","isOpenAtNight":"N","hasBell":"Y","male":1,"female":3,"type":"개방화장실"},{"id":"202434800000100012","nm":"화원역","lat":35.804436,"lng":128.50066,"addr":"대구광역시 달성군 화원읍 비슬로 지하 2600","isOpenAtNight":"N","hasBell":"Y","male":4,"female":9,"type":"개방화장실"},{"id":"202434800000100063","nm":"원주유소","lat":35.6682,"lng":128.4415,"addr":"대구광역시 달성군 현풍읍 국가산단북로 474","isOpenAtNight":"N","hasBell":"N","male":1,"female":1,"type":"개방화장실"},{"id":"202434800000100044","nm":"클린한정주유소","lat":35.6553,"lng":128.4519,"addr":"대구광역시 달성군 구지면 비슬로 167","isOpenAtNight":"N","hasBell":"N","male":1,"female":2,"type":"개방화장실"},{"id":"202434800000100079","nm":"옥포고속주유소","lat":35.78770937,"lng":128.461267,"addr":"대구광역시 달성군 옥포읍 비슬로 2190","isOpenAtNight":"N","hasBell":"N","male":1,"female":0,"type":"개방화장실"},{"id":"202434800000100084","nm":"여성문화복지센터","lat":35.79847442,"lng":128.4881804,"addr":"대구광역시 달성군 화원읍 성천로 5","isOpenAtNight":"N","hasBell":"Y","male":12,"female":20,"type":"공중화장실"},{"id":"202434800000100202","nm":"금호강변(강창파크골프장)","lat":35.8551,"lng":128.4705,"addr":"대구광역시 달성군 다사읍 달구벌대로 943","isOpenAtNight":"N","hasBell":"Y","male":2,"female":3,"type":"간이화장실"},{"id":"202434800000100023","nm":"현풍주유소(마산방향)","lat":35.70163161,"lng":128.4349727,"addr":"대구광역시 달성군 현풍읍 중부내륙지선고속도로 3","isOpenAtNight":"N","hasBell":"N","male":2,"female":0,"type":"개방화장실"},{"id":"202434800000100035","nm":"하빈면사무소","lat":35.90092044,"lng":128.4455177,"addr":"대구광역시 달성군 하빈면 하빈로84길 1","isOpenAtNight":"N","hasBell":"N","male":3,"female":3,"type":"공중화장실"},{"id":"202434800000100243","nm":"(주)우리주유소","lat":35.7974,"lng":128.4829,"addr":"대구광역시 달성군 화원읍 성화로 107","isOpenAtNight":"N","hasBell":"N","male":2,"female":2,"type":"개방화장실"},{"id":"202434800000100046","nm":"천내천","lat":35.7988,"lng":128.5044,"addr":"대구광역시 달성군 화원읍 인흥1길 5","isOpenAtNight":"N","hasBell":"N","male":0,"female":0,"type":"간이화장실"},{"id":"202434800000100098","nm":"세천늪근린공원","lat":35.8798,"lng":128.4707,"addr":"대구광역시 달성군 다사읍 세천로7길 70","isOpenAtNight":"N","hasBell":"Y","male":2,"female":4,"type":"공중화장실"},{"id":"202334800000100636","nm":"달성보 통합관리센터","lat":35.736367,"lng":128.420372,"addr":"대구광역시 달성군 논공읍 비슬로 1193","isOpenAtNight":"N","hasBell":"N","male":2,"female":8,"type":"개방화장실"},{"id":"202434800000100159","nm":"달성군민운동장(동편)","lat":35.72956066,"lng":128.4518396,"addr":"대구광역시 달성군 논공읍 논공로 697-10","isOpenAtNight":"N","hasBell":"Y","male":2,"female":5,"type":"공중화장실"},{"id":"202334800000100631","nm":"화원동산 주차장","lat":35.8118016,"lng":128.4788834,"addr":"대구광역시 달성군 화원읍 사문진로1길 40-14","isOpenAtNight":"N","hasBell":"Y","male":3,"female":5,"type":"개방화장실"},{"id":"202434800000100170","nm":"다사우체국","lat":35.86202242,"lng":128.4542032,"addr":"대구광역시 달성군 다사읍 왕선로 39","isOpenAtNight":"N","hasBell":"N","male":1,"female":1,"type":"공중화장실"},{"id":"202434800000100180","nm":"논공읍사무소","lat":35.72280517,"lng":128.4554391,"addr":"대구광역시 달성군 논공읍 비슬로 1779","isOpenAtNight":"N","hasBell":"Y","male":4,"female":5,"type":"공중화장실"},{"id":"202434800000100227","nm":"가창우체국","lat":35.80143992,"lng":128.6228068,"addr":"대구광역시 달성군 가창면 가창로216길 1","isOpenAtNight":"N","hasBell":"N","male":1,"female":0,"type":"공중화장실"},{"id":"202434800000100119","nm":"문양역","lat":35.864082,"lng":128.437078,"addr":"대구광역시 달성군 다사읍 문양역길 71, 문양역","isOpenAtNight":"N","hasBell":"Y","male":7,"female":15,"type":"개방화장실"},{"id":"202434800000100223","nm":"강림체육시설","lat":35.7845,"lng":128.4312,"addr":"대구광역시 달성군 옥포읍 비슬로387길 48","isOpenAtNight":"N","hasBell":"N","male":1,"female":1,"type":"간이화장실"},{"id":"202434800000100216","nm":"곽망우당묘소","lat":35.629,"lng":128.4045,"addr":"대구광역시 달성군 구지면 대암내길 28","isOpenAtNight":"N","hasBell":"Y","male":2,"female":3,"type":"공중화장실"},{"id":"202434800000100133","nm":"대실역","lat":35.857278,"lng":128.465639,"addr":"대구광역시 달성군 다사읍 달구벌대로 지하 888, 대실역","isOpenAtNight":"N","hasBell":"Y","male":3,"female":7,"type":"개방화장실"},{"id":"202434800000100052","nm":"육신사(신)","lat":35.91116004,"lng":128.4165836,"addr":"대구광역시 달성군 하빈면 육신사길 26","isOpenAtNight":"N","hasBell":"Y","male":1,"female":5,"type":"공중화장실"},{"id":"202334800000100616","nm":"대구테크비즈센터","lat":35.6907,"lng":128.4565,"addr":"대구광역시 달성군 현풍읍 테크노공원로 16","isOpenAtNight":"N","hasBell":"Y","male":12,"female":32,"type":"개방화장실"},{"id":"202434800000100070","nm":"용연사","lat":35.74823684,"lng":128.5209241,"addr":"대구광역시 달성군 옥포읍 용연사길 260, 용연사","isOpenAtNight":"N","hasBell":"N","male":2,"female":5,"type":"공중화장실"},{"id":"202434800000100073","nm":"용두주유소","lat":35.86538323,"lng":128.4264408,"addr":"대구광역시 달성군 다사읍 달구벌대로 355","isOpenAtNight":"N","hasBell":"Y","male":1,"female":1,"type":"개방화장실"},{"id":"202434800000100190","nm":"녹동서원 인근","lat":35.722841,"lng":128.644919,"addr":"대구광역시 달성군 가창면 우록길 229","isOpenAtNight":"N","hasBell":"Y","male":0,"female":1,"type":"공중화장실"},{"id":"202434800000100028","nm":"현풍곽씨십이정려각","lat":35.6672,"lng":128.4295,"addr":"대구광역시 달성군 현풍읍 지동길 3","isOpenAtNight":"N","hasBell":"N","male":1,"female":2,"type":"공중화장실"},{"id":"202434800000100211","nm":"구지면사무소","lat":35.65879236,"lng":128.4135938,"addr":"대구광역시 달성군 구지면 창리로11길 38","isOpenAtNight":"N","hasBell":"N","male":5,"female":5,"type":"공중화장실"},{"id":"202434800000100069","nm":"용연사 집단시설지구","lat":35.753969,"lng":128.504889,"addr":"대구광역시 달성군 옥포읍 용연사길 100-1","isOpenAtNight":"N","hasBell":"Y","male":1,"female":2,"type":"공중화장실"},{"id":"202334800000100633","nm":"비슬산 유스호스텔","lat":35.69248934,"lng":128.506128,"addr":"대구광역시 달성군 유가읍 일연선사길 10","isOpenAtNight":"N","hasBell":"Y","male":2,"female":9,"type":"공중화장실"},{"id":"202434800000100081","nm":"옥포3호근린공원","lat":35.78331712,"lng":128.4420048,"addr":"대구광역시 달성군 옥포읍 비슬로 2003","isOpenAtNight":"N","hasBell":"Y","male":3,"female":4,"type":"공중화장실"},{"id":"202434800000100263","nm":"다사 영업소","lat":35.8497,"lng":128.4695,"addr":"대구광역시 달성군 다사읍 대구외곽순환고속도로 4","isOpenAtNight":"N","hasBell":"N","male":0,"female":1,"type":"개방화장실"},{"id":"202434800000100055","nm":"유곡공원","lat":35.67292966,"lng":128.455761,"addr":"대구광역시 달성군 유가읍 테크노중앙대로1길 37","isOpenAtNight":"N","hasBell":"Y","male":1,"female":3,"type":"공중화장실"},{"id":"202434800000100115","nm":"비슬구천공원","lat":35.697283,"lng":128.465521,"addr":"대구광역시 달성군 유가읍 테크노대로5길 96","isOpenAtNight":"N","hasBell":"N","male":1,"female":4,"type":"공중화장실"},{"id":"202434800000100108","nm":"사문진 주막촌","lat":35.81105329,"lng":128.4786571,"addr":"대구광역시 달성군 화원읍 사문진로1길 43","isOpenAtNight":"N","hasBell":"N","male":1,"female":3,"type":"공중화장실"},{"id":"202434800000100004","nm":"환경시설공단(달성사업소)","lat":35.69108829,"lng":128.4230829,"addr":"대구광역시 달성군 현풍읍 현풍서로 147, 달성사업소","isOpenAtNight":"N","hasBell":"N","male":3,"female":8,"type":"공중화장실"}]}