{"items":[{"id":"202434500000102275","nm":"검단 파크골프장 1","lat":35.9247723821,"lng":128.6223857862,"addr":"대구광역시 북구 검단동 1399-1","isOpenAtNight":"N","hasBell":"Y","male":1,"female":3,"type":"개방화장실"},{"id":"202434500000102408","nm":"KT북대구 고객서비스센터","lat":35.8818697718,"lng":128.5814523201,"addr":"대구광역시 북구 고성로 141","isOpenAtNight":"N","hasBell":"N","male":1,"female":1,"type":"개방화장실"},{"id":"202434500000102277","nm":"검단 축구장 1","lat":35.9209665592,"lng":128.6159651178,"addr":"대구광역시 북구 검단동 399-2","isOpenAtNight":"N","hasBell":"Y","male":1,"female":2,"type":"개방화장실"},{"id":"202434500000102198","nm":"산격4동 행정복지센터","lat":35.8922712392,"lng":128.6042813914,"addr":"대구광역시 북구 대구체육관로 48","isOpenAtNight":"N","hasBell":"N","male":2,"female":2,"type":"개방화장실"},{"id":"202434500000102230","nm":"읍내동1234-126 하천 인근 화장실","lat":35.9394345964,"lng":128.5565710393,"addr":"대구광역시 북구 읍내동 1234-126","isOpenAtNight":"N","hasBell":"Y","male":2,"female":4,"type":"개방화장실"},{"id":"202434500000102226","nm":"매천동 669번지 하천 인근 화장실","lat":35.9127617246,"lng":128.5433757153,"addr":"대구광역시 북구 학정로 6","isOpenAtNight":"N","hasBell":"Y","male":0,"female":2,"type":"개방화장실"},{"id":"202534500000100017","nm":"칠곡 영업소","lat":35.934517,"lng":128.5392,"addr":"대구광역시 북구 관음로","isOpenAtNight":"N","hasBell":"N","male":3,"female":4,"type":"개방화장실"},{"id":"202434500000102260","nm":"대천어린이공원","lat":35.9394384726,"lng":128.5552310434,"addr":"대구광역시 북구 팔거천서로35길 11","isOpenAtNight":"N","hasBell":"Y","male":1,"female":1,"type":"개방화장실"},{"id":"202434500000102232","nm":"동천동 972-2 하천 인근 화장실","lat":35.9377067069,"lng":128.556638741,"addr":"대구광역시 북구 팔거천동로 147","isOpenAtNight":"N","hasBell":"Y","male":1,"female":2,"type":"개방화장실"},{"id":"202434500000102177","nm":"대구광역시청 총무과","lat":35.8919508964,"lng":128.5982258212,"addr":"대구광역시 북구 연암로 40","isOpenAtNight":"N","hasBell":"N","male":6,"female":8,"type":"개방화장실"},{"id":"202434500000102269","nm":"대불스포츠센터","lat":35.9044360545,"lng":128.6111321293,"addr":"대구광역시 북구 유통단지로8길 56","isOpenAtNight":"N","hasBell":"Y","male":4,"female":5,"type":"개방화장실"},{"id":"202434500000102301","nm":"학정주유소","lat":35.9512318365,"lng":128.5698335337,"addr":"대구광역시 북구 호국로 729","isOpenAtNight":"N","hasBell":"N","male":1,"female":1,"type":"개방화장실"},{"id":"202434500000102406","nm":"대구도시공사","lat":35.8831754914,"lng":128.5893388805,"addr":"대구광역시 북구 침산로 73","isOpenAtNight":"N","hasBell":"N","male":19,"female":19,"type":"개방화장실"},{"id":"202434500000102424","nm":"대구강북고용복지플러스센터","lat":35.9240333234,"lng":128.5473297226,"addr":"대구광역시 북구 칠곡중앙대로 318","isOpenAtNight":"N","hasBell":"Y","male":10,"female":10,"type":"개방화장실"},{"id":"202434500000102173","nm":"함지노인복지관","lat":35.9428967674,"lng":128.5703236665,"addr":"대구광역시 북구 동암로 180","isOpenAtNight":"N","hasBell":"N","male":3,"female":8,"type":"개방화장실"},{"id":"202434500000102348","nm":"케이케이(주)침산주유소","lat":35.9012692822,"lng":128.5877135217,"addr":"대구광역시 북구 노원로 255","isOpenAtNight":"N","hasBell":"N","male":1,"female":2,"type":"개방화장실"},{"id":"202434500000102349","nm":"강남고속주유소","lat":35.9000131669,"lng":128.5836891272,"addr":"대구광역시 북구 노원로 216","isOpenAtNight":"N","hasBell":"N","male":1,"female":1,"type":"개방화장실"},{"id":"202434500000102189","nm":"태전도서관","lat":35.9285492378,"lng":128.5461950821,"addr":"대구광역시 북구 영송로 36-16","isOpenAtNight":"N","hasBell":"N","male":2,"female":5,"type":"공중화장실"},{"id":"202434500000102237","nm":"읍내어린이공원","lat":35.9404234927,"lng":128.549847642,"addr":"대구광역시 북구 칠곡중앙대로99길 2","isOpenAtNight":"N","hasBell":"Y","male":1,"female":1,"type":"개방화장실"},{"id":"202434500000102211","nm":"침산2동 행정복지센터","lat":35.8872683405,"lng":128.5969903203,"addr":"대구광역시 북구 침산남로 195","isOpenAtNight":"N","hasBell":"N","male":1,"female":1,"type":"개방화장실"},{"id":"202434500000102191","nm":"보건복지센터","lat":35.8918792455,"lng":128.5888970027,"addr":"대구광역시 북구 성북로 49","isOpenAtNight":"N","hasBell":"Y","male":20,"female":19,"type":"개방화장실"},{"id":"202434500000102429","nm":"팔달역(지상철3호선)","lat":35.8978233001,"lng":128.5467202253,"addr":"대구광역시 북구 매천로2길 43","isOpenAtNight":"N","hasBell":"Y","male":2,"female":5,"type":"개방화장실"},{"id":"202434500000102214","nm":"무태조야동 행정복지센터","lat":35.9213530509,"lng":128.5970460624,"addr":"대구광역시 북구 호국로43길 20","isOpenAtNight":"N","hasBell":"N","male":2,"female":4,"type":"개방화장실"},{"id":"202434500000102438","nm":"칠곡운암역(지상철3호선)","lat":35.9314777014,"lng":128.554550657,"addr":"대구광역시 북구 팔거천동로 79","isOpenAtNight":"N","hasBell":"Y","male":2,"female":5,"type":"개방화장실"},{"id":"202434500000102338","nm":"흥구석유(주)산격주유소","lat":35.9023124327,"lng":128.5979773958,"addr":"대구광역시 북구 동북로 39","isOpenAtNight":"N","hasBell":"N","male":2,"female":1,"type":"개방화장실"},{"id":"202434500000102203","nm":"복현1동 행정복지센터","lat":35.893769161,"lng":128.6185864935,"addr":"대구광역시 북구 동북로52길 7","isOpenAtNight":"N","hasBell":"N","male":1,"female":3,"type":"개방화장실"},{"id":"202434500000102259","nm":"서변근린공원","lat":35.9217042471,"lng":128.5951738541,"addr":"대구광역시 북구 서변로3길 64","isOpenAtNight":"N","hasBell":"Y","male":1,"female":2,"type":"개방화장실"},{"id":"202434500000102263","nm":"침산공원(C)","lat":35.8972648627,"lng":128.5848574102,"addr":"대구광역시 북구 침산동 1329","isOpenAtNight":"N","hasBell":"Y","male":1,"female":2,"type":"개방화장실"},{"id":"202434500000102223","nm":"서변동 1630-1번지 하천 인근 화장실","lat":35.9100931718,"lng":128.5957517596,"addr":"대구광역시 북구 조야로2길 209","isOpenAtNight":"N","hasBell":"Y","male":1,"female":4,"type":"개방화장실"},{"id":"202434500000102444","nm":"대구역","lat":35.8758076636,"lng":128.5960385826,"addr":"대구광역시 북구 태평로 161","isOpenAtNight":"N","hasBell":"Y","male":6,"female":14,"type":"개방화장실"},{"id":"202434500000102201","nm":"대현동 행정복지센터","lat":35.8815664522,"lng":128.6046435603,"addr":"대구광역시 북구 대현남로 25","isOpenAtNight":"N","hasBell":"N","male":4,"female":4,"type":"개방화장실"},{"id":"202434500000102403","nm":"국립농산물품질관리원1층","lat":35.9443979869,"lng":128.5591887245,"addr":"대구광역시 북구 동암로 76","isOpenAtNight":"N","hasBell":"N","male":9,"female":12,"type":"개방화장실"},{"id":"202534500000100007","nm":"금호강 21번","lat":35.902562,"lng":128.564262,"addr":"대구광역시 북구 노곡동 738","isOpenAtNight":"N","hasBell":"Y","male":1,"female":4,"type":"개방화장실"},{"id":"202434500000102212","nm":"침산1동 행정복지센터","lat":35.8903182218,"lng":128.581352125,"addr":"대구광역시 북구 침산남로13길 16","isOpenAtNight":"N","hasBell":"N","male":1,"female":1,"type":"개방화장실"},{"id":"202434500000102181","nm":"경상북도 농업기술원","lat":35.9581151842,"lng":128.5608169991,"addr":"대구광역시 북구 칠곡중앙대로136길 47","isOpenAtNight":"N","hasBell":"N","male":14,"female":18,"type":"공중화장실"},{"id":"202434500000102194","nm":"관음동 행정복지센터","lat":35.9442530628,"lng":128.5473267275,"addr":"대구광역시 북구 관음동로 125","isOpenAtNight":"N","hasBell":"N","male":1,"female":2,"type":"개방화장실"},{"id":"202434500000102241","nm":"운암공원","lat":35.926668551,"lng":128.5535650491,"addr":"대구광역시 북구 태암남로11길 19-5","isOpenAtNight":"N","hasBell":"Y","male":1,"female":1,"type":"개방화장실"},{"id":"202434500000102379","nm":"팔달신시장 고객쉼터(남편화장실)","lat":35.8895123475,"lng":128.5668322274,"addr":"대구광역시 북구 팔달로33길 17-27","isOpenAtNight":"N","hasBell":"N","male":3,"female":5,"type":"개방화장실"},{"id":"202434500000102282","nm":"연경체육공원","lat":35.9434150407,"lng":128.6251847838,"addr":"대구광역시 북구 동화천로 330","isOpenAtNight":"N","hasBell":"Y","male":1,"female":4,"type":"개방화장실"},{"id":"202434500000102334","nm":"덕영주유소","lat":35.9224357468,"lng":128.5396443382,"addr":"대구광역시 북구 매천로 290","isOpenAtNight":"N","hasBell":"N","male":2,"female":2,"type":"개방화장실"},{"id":"202434500000102411","nm":"(주)KT산격지점","lat":35.9029593235,"lng":128.6042372794,"addr":"대구광역시 북구 호국로 8","isOpenAtNight":"N","hasBell":"N","male":1,"female":14,"type":"개방화장실"},{"id":"202434500000102341","nm":"북대구IC주유소","lat":35.9022887606,"lng":128.6063555259,"addr":"대구광역시 북구 동북로 113","isOpenAtNight":"N","hasBell":"N","male":1,"female":2,"type":"개방화장실"},{"id":"202434500000102187","nm":"구수산도서관","lat":35.9387435196,"lng":128.5524048216,"addr":"대구광역시 북구 대천로 21","isOpenAtNight":"N","hasBell":"N","male":8,"female":20,"type":"공중화장실"},{"id":"202434500000102427","nm":"(재)한국안광학산업진흥원","lat":35.8993728592,"lng":128.5785879265,"addr":"대구광역시 북구 노원로 169","isOpenAtNight":"N","hasBell":"N","male":2,"female":3,"type":"개방화장실"},{"id":"202434500000102256","nm":"유통단지공원","lat":35.9074042331,"lng":128.6090478764,"addr":"대구광역시 북구 유통단지로 61","isOpenAtNight":"N","hasBell":"Y","male":2,"female":5,"type":"개방화장실"},{"id":"202434500000102442","nm":"매천역(지상철3호선)","lat":35.9127617246,"lng":128.5433757153,"addr":"대구광역시 북구 학정로 6","isOpenAtNight":"N","hasBell":"Y","male":2,"female":5,"type":"개방화장실"},{"id":"202434500000102404","nm":"대구국토관리사무소 본관 1층 화장실","lat":35.9173646829,"lng":128.5473721809,"addr":"대구광역시 북구 학정로1길 54","isOpenAtNight":"N","hasBell":"N","male":2,"female":2,"type":"공중화장실"},{"id":"202434500000102216","nm":"대구광역시청 별관","lat":35.8919508964,"lng":128.5982258212,"addr":"대구광역시 북구 연암로 40","isOpenAtNight":"N","hasBell":"N","male":97,"female":94,"type":"개방화장실"},{"id":"202434500000102292","nm":"서변LPG충전소","lat":35.9133438298,"lng":128.5990440334,"addr":"대구광역시 북구 호국로 129","isOpenAtNight":"N","hasBell":"N","male":2,"female":2,"type":"개방화장실"},{"id":"202434500000102340","nm":"복현셀프주유소","lat":35.8943967241,"lng":128.6184251751,"addr":"대구광역시 북구 동북로 256","isOpenAtNight":"N","hasBell":"N","male":1,"female":0,"type":"개방화장실"},{"id":"202434500000102249","nm":"팔달어린이공원","lat":35.8925181749,"lng":128.5700007271,"addr":"대구광역시 북구 노원동3가 1019","isOpenAtNight":"N","hasBell":"Y","male":1,"female":1,"type":"개방화장실"},{"id":"202434500000102276","nm":"검단 축구장 2","lat":35.9209665592,"lng":128.6159651178,"addr":"대구광역시 북구 검단동 399-2","isOpenAtNight":"N","hasBell":"Y","male":2,"female":4,"type":"개방화장실"},{"id":"202434500000102426","nm":"대구북부경찰서","lat":35.8864510305,"lng":128.5826471452,"addr":"대구광역시 북구 원대로 100","isOpenAtNight":"N","hasBell":"Y","male":10,"female":13,"type":"개방화장실"},{"id":"202434500000102172","nm":"북구보훈회관 및 노인회관","lat":35.8773335885,"lng":128.5918206384,"addr":"대구광역시 북구 칠성남로26길 27","isOpenAtNight":"N","hasBell":"N","male":7,"female":15,"type":"개방화장실"},{"id":"202434500000102299","nm":"태왕주유소","lat":35.901872089,"lng":128.5946056837,"addr":"대구광역시 북구 동북로 9","isOpenAtNight":"N","hasBell":"N","male":1,"female":2,"type":"개방화장실"},{"id":"202434500000102295","nm":"(주)칠곡IC충전소","lat":35.9234588896,"lng":128.5381624178,"addr":"대구광역시 북구 매천로 307","isOpenAtNight":"N","hasBell":"N","male":1,"female":3,"type":"개방화장실"},{"id":"202434500000102407","nm":"한국농어촌공사 경북지역본부","lat":35.9313684318,"lng":128.5577101023,"addr":"대구광역시 북구 구암로 158","isOpenAtNight":"N","hasBell":"N","male":15,"female":8,"type":"개방화장실"},{"id":"202434500000102288","nm":"읍내IC충전소","lat":35.9605777262,"lng":128.5522793535,"addr":"대구광역시 북구 칠곡중앙대로 736","isOpenAtNight":"N","hasBell":"N","male":1,"female":1,"type":"개방화장실"},{"id":"202434500000102317","nm":"한국광유(주)한일주유소","lat":35.923827708,"lng":128.5465516248,"addr":"대구광역시 북구 칠곡중앙대로 315","isOpenAtNight":"N","hasBell":"N","male":1,"female":1,"type":"개방화장실"},{"id":"202434500000102279","nm":"금호 유수지 족구장(신규)","lat":35.8962386323,"lng":128.5136808964,"addr":"대구광역시 북구 사수동 898","isOpenAtNight":"N","hasBell":"Y","male":1,"female":3,"type":"개방화장실"},{"id":"202434500000102319","nm":"오일월드주유소","lat":35.8987858587,"lng":128.5476957708,"addr":"대구광역시 북구 칠곡중앙대로 25","isOpenAtNight":"N","hasBell":"N","male":1,"female":1,"type":"개방화장실"},{"id":"202434500000102330","nm":"대성산업㈜대성화물터미널2주유소","lat":35.8862555071,"lng":128.5302647748,"addr":"대구광역시 북구 서재로 540","isOpenAtNight":"N","hasBell":"N","male":1,"female":2,"type":"개방화장실"},{"id":"202434500000102410","nm":"한국전력공사 대구지역본부","lat":35.8871765779,"lng":128.5831501639,"addr":"대구광역시 북구 원대로 110","isOpenAtNight":"N","hasBell":"N","male":15,"female":12,"type":"개방화장실"},{"id":"202434500000102417","nm":"대구읍내동우체국","lat":35.9340740966,"lng":128.5497472684,"addr":"대구광역시 북구 구암로15길 16","isOpenAtNight":"N","hasBell":"N","male":0,"female":0,"type":"개방화장실"},{"id":"202434500000102273","nm":"무태파크골프장","lat":35.9174854364,"lng":128.5999649077,"addr":"대구광역시 북구 서변동 1630-1","isOpenAtNight":"N","hasBell":"Y","male":1,"female":1,"type":"개방화장실"},{"id":"202434500000102307","nm":"팔달41주유소","lat":35.8912350532,"lng":128.5549718795,"addr":"대구광역시 북구 팔달로 41","isOpenAtNight":"N","hasBell":"Y","male":0,"female":0,"type":"개방화장실"},{"id":"202434500000102270","nm":"태전테니스장","lat":35.931646786,"lng":128.546155798,"addr":"대구광역시 북구 태전동 938","isOpenAtNight":"N","hasBell":"Y","male":0,"female":1,"type":"개방화장실"},{"id":"202434500000102366","nm":"박정형외과병원","lat":35.8968204449,"lng":128.6136496367,"addr":"대구광역시 북구 대학로 143","isOpenAtNight":"N","hasBell":"N","male":7,"female":14,"type":"개방화장실"},{"id":"202434500000102435","nm":"팔거역(지상철3호선)","lat":35.9440795417,"lng":128.5583618575,"addr":"대구광역시 북구 팔거천동로 226","isOpenAtNight":"N","hasBell":"Y","male":1,"female":4,"type":"개방화장실"},{"id":"202434500000102413","nm":"대구우편집중국","lat":35.9103850341,"lng":128.6146770028,"addr":"대구광역시 북구 유통단지로 115","isOpenAtNight":"N","hasBell":"Y","male":2,"female":2,"type":"개방화장실"},{"id":"202434500000102344","nm":"대현주유소","lat":35.88884496,"lng":128.6034357462,"addr":"대구광역시 북구 대학로 16","isOpenAtNight":"N","hasBell":"N","male":1,"female":1,"type":"개방화장실"},{"id":"202434500000102206","nm":"구.산격1동 행정복지센터","lat":35.8926271768,"lng":128.5946557901,"addr":"대구광역시 북구 연암로 88","isOpenAtNight":"N","hasBell":"N","male":1,"female":1,"type":"개방화장실"},{"id":"202434500000102372","nm":"(주)이마트 칠성점","lat":35.8852255663,"lng":128.589789906,"addr":"대구광역시 북구 침산로 93","isOpenAtNight":"N","hasBell":"Y","male":4,"female":8,"type":"공중화장실"},{"id":"202434500000102389","nm":"칠성시장(1)","lat":35.8765665474,"lng":128.6043008772,"addr":"대구광역시 북구 칠성시장로 28","isOpenAtNight":"N","hasBell":"N","male":3,"female":3,"type":"공중화장실"},{"id":"202434500000102210","nm":"칠성동 행정복지센터","lat":35.8792240826,"lng":128.6000198422,"addr":"대구광역시 북구 칠성로19길 4","isOpenAtNight":"N","hasBell":"N","male":3,"female":4,"type":"개방화장실"},{"id":"202434500000102167","nm":"시민운동장 실내빙상장","lat":35.8830193455,"lng":128.5861543004,"addr":"대구광역시 북구 고성로 191","isOpenAtNight":"N","hasBell":"Y","male":10,"female":14,"type":"공중화장실"},{"id":"202434500000102441","nm":"팔달공영주차장","lat":35.8906854862,"lng":128.5659733828,"addr":"대구광역시 북구 팔달로33길 59","isOpenAtNight":"N","hasBell":"Y","male":1,"female":4,"type":"개방화장실"},{"id":"202434500000102396","nm":"대구종합유통단지 전자관","lat":35.9072031552,"lng":128.6070186694,"addr":"대구광역시 북구 유통단지로 45","isOpenAtNight":"N","hasBell":"Y","male":58,"female":76,"type":"개방화장실"},{"id":"202534500000100012","nm":"검단(서울)졸음쉼터","lat":35.92,"lng":128.61,"addr":"대구광역시 북구 경부고속도로","isOpenAtNight":"N","hasBell":"Y","male":0,"female":1,"type":"간이화장실"},{"id":"202434500000102243","nm":"구암근린공원","lat":35.9285563361,"lng":128.5570849916,"addr":"대구광역시 북구 구암로32길 35","isOpenAtNight":"N","hasBell":"Y","male":2,"female":4,"type":"개방화장실"},{"id":"202434500000102247","nm":"금호근린공원","lat":35.8953932576,"lng":128.5204747324,"addr":"대구광역시 북구 사수로 351","isOpenAtNight":"N","hasBell":"Y","male":3,"female":6,"type":"개방화장실"},{"id":"202434500000102286","nm":"대성산업㈜ 대성충전소","lat":35.8816442791,"lng":128.5899237229,"addr":"대구광역시 북구 침산로 60","isOpenAtNight":"N","hasBell":"N","male":7,"female":8,"type":"개방화장실"},{"id":"202434500000102215","nm":"농수산물도매시장 관리사무소","lat":35.9008626491,"lng":128.5432493955,"addr":"대구광역시 북구 매천로18길 34","isOpenAtNight":"N","hasBell":"N","male":2,"female":2,"type":"개방화장실"},{"id":"202434500000102193","nm":"고성동 행정복지센터","lat":35.8818458427,"lng":128.5835075672,"addr":"대구광역시 북구 고성로31길 21","isOpenAtNight":"N","hasBell":"Y","male":4,"female":3,"type":"개방화장실"},{"id":"202434500000102358","nm":"대성산업㈜복현대성주유소","lat":35.8988959521,"lng":128.615565403,"addr":"대구광역시 북구 검단로 12","isOpenAtNight":"N","hasBell":"N","male":1,"female":2,"type":"개방화장실"},{"id":"202434500000102332","nm":"화성제2주유소","lat":35.8947527717,"lng":128.533974758,"addr":"대구광역시 북구 사수로 523","isOpenAtNight":"N","hasBell":"N","male":1,"female":2,"type":"개방화장실"},{"id":"202434500000102271","nm":"연암테니스장","lat":35.9005385707,"lng":128.6049068954,"addr":"대구광역시 북구 연암공원로 131","isOpenAtNight":"N","hasBell":"Y","male":1,"female":1,"type":"개방화장실"},{"id":"202434500000102367","nm":"문요양병원","lat":35.9153662752,"lng":128.547996815,"addr":"대구광역시 북구 칠곡중앙대로 215","isOpenAtNight":"N","hasBell":"Y","male":5,"female":5,"type":"개방화장실"},{"id":"202434500000102293","nm":"(주)팔달충전소","lat":35.9075256568,"lng":128.5482304098,"addr":"대구광역시 북구 칠곡중앙대로 132","isOpenAtNight":"N","hasBell":"N","male":1,"female":1,"type":"개방화장실"},{"id":"202434500000102240","nm":"해당화어린이공원","lat":35.9270328528,"lng":128.5524111601,"addr":"대구광역시 북구 팔거천동로4길 3-10","isOpenAtNight":"N","hasBell":"Y","male":1,"female":1,"type":"개방화장실"},{"id":"202434500000102209","nm":"태전2동 행정복지센터","lat":35.921493249,"lng":128.5487641129,"addr":"대구광역시 북구 칠곡중앙대로52길 32","isOpenAtNight":"N","hasBell":"N","male":0,"female":2,"type":"개방화장실"},{"id":"202434500000102350","nm":"에코주유소","lat":35.8996217718,"lng":128.5809562908,"addr":"대구광역시 북구 노원로 190","isOpenAtNight":"N","hasBell":"N","male":1,"female":2,"type":"개방화장실"},{"id":"202434500000102443","nm":"서대구고속버스터미널","lat":35.8902436064,"lng":128.561423769,"addr":"대구광역시 북구 팔달로 103","isOpenAtNight":"N","hasBell":"N","male":2,"female":4,"type":"개방화장실"},{"id":"202434500000102266","nm":"태전근린공원(B)","lat":35.931646786,"lng":128.546155798,"addr":"대구광역시 북구 태전동 938","isOpenAtNight":"N","hasBell":"Y","male":2,"female":5,"type":"개방화장실"},{"id":"202434500000102313","nm":"소원주유소","lat":35.9527552484,"lng":128.5535451209,"addr":"대구광역시 북구 칠곡중앙대로 641","isOpenAtNight":"N","hasBell":"N","male":1,"female":0,"type":"개방화장실"},{"id":"202434500000102415","nm":"대구서변동우체국","lat":35.9209100741,"lng":128.5971528144,"addr":"대구광역시 북구 호국로43길 17","isOpenAtNight":"N","hasBell":"N","male":1,"female":1,"type":"개방화장실"},{"id":"202434500000102347","nm":"산동주유소","lat":35.8915553267,"lng":128.5660519787,"addr":"대구광역시 북구 노원로 28","isOpenAtNight":"N","hasBell":"N","male":0,"female":0,"type":"개방화장실"},{"id":"202434500000102423","nm":"북대구우체국","lat":35.9415348851,"lng":128.5657161951,"addr":"대구광역시 북구 구암로65길 38","isOpenAtNight":"N","hasBell":"N","male":2,"female":4,"type":"개방화장실"},{"id":"202434500000102175","nm":"강북노인복지관","lat":35.9362397551,"lng":128.5466985734,"addr":"대구광역시 북구 칠곡중앙대로91길 21","isOpenAtNight":"N","hasBell":"N","male":4,"female":8,"type":"개방화장실"},{"id":"202434500000102312","nm":"공명주유소","lat":35.8893026669,"lng":128.5806994824,"addr":"대구광역시 북구 침산남로 43","isOpenAtNight":"N","hasBell":"N","male":1,"female":1,"type":"개방화장실"},{"id":"202434500000102248","nm":"해바라기어린이공원","lat":35.8889777577,"lng":128.5740075815,"addr":"대구광역시 북구 오봉로1길 41","isOpenAtNight":"N","hasBell":"Y","male":1,"female":2,"type":"개방화장실"},{"id":"202434500000102432","nm":"칠성시장역(지하철1호선)","lat":35.8761274529,"lng":128.6051685032,"addr":"대구광역시 북구 칠성남로 222","isOpenAtNight":"N","hasBell":"Y","male":6,"female":6,"type":"개방화장실"},{"id":"202434500000102308","nm":"㈜아스트로주유소","lat":35.8882467699,"lng":128.5732084066,"addr":"대구광역시 북구 팔달로 215","isOpenAtNight":"N","hasBell":"N","male":1,"female":1,"type":"개방화장실"},{"id":"202434500000102328","nm":"선진주유소","lat":35.8952223336,"lng":128.5942852271,"addr":"대구광역시 북구 연암로 119","isOpenAtNight":"N","hasBell":"N","male":1,"female":1,"type":"개방화장실"},{"id":"202434500000102188","nm":"대현도서관","lat":35.8819023296,"lng":128.607397789,"addr":"대구광역시 북구 대현남로 43","isOpenAtNight":"N","hasBell":"Y","male":3,"female":6,"type":"공중화장실"},{"id":"202434500000102285","nm":"㈜금호지구충전소","lat":35.895523353,"lng":128.5256065492,"addr":"대구광역시 북구 사수로 432","isOpenAtNight":"N","hasBell":"N","male":1,"female":2,"type":"개방화장실"},{"id":"202434500000102310","nm":"대일종합에너지주유소 태전점","lat":35.9220609939,"lng":128.5460638757,"addr":"대구광역시 북구 태전로 14","isOpenAtNight":"N","hasBell":"N","male":1,"female":0,"type":"개방화장실"},{"id":"202434500000102267","nm":"연경근린공원","lat":35.9440405468,"lng":128.6235181585,"addr":"대구광역시 북구 동화천로55길 25","isOpenAtNight":"N","hasBell":"Y","male":2,"female":8,"type":"개방화장실"},{"id":"202534500000100013","nm":"검단(부산)졸음쉼터","lat":35.92,"lng":128.61,"addr":"대구광역시 북구 경부고속도로","isOpenAtNight":"N","hasBell":"Y","male":0,"female":2,"type":"간이화장실"},{"id":"202434500000102261","nm":"침산공원(A)","lat":35.8967849714,"lng":128.5851105367,"addr":"대구광역시 북구 침산동 1170-7","isOpenAtNight":"N","hasBell":"Y","male":2,"female":2,"type":"개방화장실"},{"id":"202434500000102376","nm":"(주)스펙트럼시티","lat":35.8852255663,"lng":128.589789906,"addr":"대구광역시 북구 침산로 93","isOpenAtNight":"N","hasBell":"N","male":29,"female":44,"type":"개방화장실"},{"id":"202434500000102402","nm":"선린종합사회복지관","lat":35.9378470543,"lng":128.5455074401,"addr":"대구광역시 북구 관음동로9길 10-25","isOpenAtNight":"N","hasBell":"N","male":10,"female":0,"type":"개방화장실"},{"id":"202434500000102342","nm":"SK네트윅스㈜해바라기주유소","lat":35.8831140319,"lng":128.608068624,"addr":"대구광역시 북구 대현로 81","isOpenAtNight":"N","hasBell":"N","male":1,"female":1,"type":"개방화장실"},{"id":"202434500000102265","nm":"태전근린공원(A)","lat":35.931646786,"lng":128.546155798,"addr":"대구광역시 북구 태전동 938","isOpenAtNight":"N","hasBell":"Y","male":2,"female":4,"type":"개방화장실"},{"id":"202434500000102190","nm":"대구광역시 북구청","lat":35.8856842975,"lng":128.5827801617,"addr":"대구광역시 북구 옥산로 65","isOpenAtNight":"N","hasBell":"Y","male":38,"female":70,"type":"개방화장실"},{"id":"202434500000102258","nm":"대불근린공원","lat":35.9055528429,"lng":128.6155319575,"addr":"대구광역시 북구 산격동 산 2-1","isOpenAtNight":"N","hasBell":"Y","male":1,"female":2,"type":"개방화장실"},{"id":"202434500000102321","nm":"㈜HC에너지 보광주유소","lat":35.9110472922,"lng":128.5487570769,"addr":"대구광역시 북구 칠곡중앙대로 168","isOpenAtNight":"N","hasBell":"N","male":1,"female":1,"type":"개방화장실"},{"id":"202434500000102418","nm":"대구복현동우체국","lat":35.8956913806,"lng":128.614087658,"addr":"대구광역시 북구 경진로 7","isOpenAtNight":"N","hasBell":"Y","male":0,"female":1,"type":"개방화장실"},{"id":"202434500000102398","nm":"대구종합유통단지 전기재료관","lat":35.905060596,"lng":128.6077132429,"addr":"대구광역시 북구 유통단지로 38","isOpenAtNight":"N","hasBell":"N","male":35,"female":34,"type":"개방화장실"},{"id":"202434500000102264","nm":"샛별어린이공원","lat":35.9275441693,"lng":128.5498676355,"addr":"대구광역시 북구 태전동 1046-1","isOpenAtNight":"N","hasBell":"Y","male":1,"female":1,"type":"개방화장실"},{"id":"202434500000102300","nm":"리더스셀프주유소","lat":35.9582349651,"lng":128.5662163935,"addr":"대구광역시 북구 호국로 814","isOpenAtNight":"N","hasBell":"N","male":1,"female":2,"type":"개방화장실"},{"id":"202434500000102383","nm":"팔달공영주차장","lat":35.8906854862,"lng":128.5659733828,"addr":"대구광역시 북구 팔달로33길 59","isOpenAtNight":"N","hasBell":"Y","male":1,"female":4,"type":"개방화장실"},{"id":"202434500000102251","nm":"들말공원","lat":35.9326412105,"lng":128.5587341776,"addr":"대구광역시 북구 동천동 880-2","isOpenAtNight":"N","hasBell":"Y","male":1,"female":1,"type":"개방화장실"},{"id":"202434500000102318","nm":"기분좋은주유소","lat":35.9215523668,"lng":128.5471356991,"addr":"대구광역시 북구 칠곡중앙대로 290","isOpenAtNight":"N","hasBell":"N","male":1,"female":0,"type":"개방화장실"},{"id":"202434500000102242","nm":"다람쥐어린이공원","lat":35.925998651,"lng":128.5552136181,"addr":"대구광역시 북구 태암로18길 20-13","isOpenAtNight":"N","hasBell":"Y","male":1,"female":1,"type":"개방화장실"},{"id":"202434500000102326","nm":"오페라주유소","lat":35.8846158889,"lng":128.5975687949,"addr":"대구광역시 북구 중앙대로 580","isOpenAtNight":"N","hasBell":"N","male":0,"female":1,"type":"개방화장실"},{"id":"202534500000100016","nm":"연경 영업소","lat":35.93666,"lng":128.611232,"addr":"대구광역시 북구 대구외곽순환도로","isOpenAtNight":"N","hasBell":"N","male":0,"female":1,"type":"개방화장실"},{"id":"202434500000102166","nm":"대구실내체육관(B)","lat":35.8937540996,"lng":128.6030101446,"addr":"대구광역시 북구 대구체육관로 39","isOpenAtNight":"N","hasBell":"N","male":2,"female":6,"type":"공중화장실"},{"id":"202534500000100004","nm":"금호강 17번","lat":35.911621,"lng":128.604979,"addr":"대구광역시 북구 산격동 14-45","isOpenAtNight":"N","hasBell":"Y","male":1,"female":3,"type":"개방화장실"},{"id":"202434500000102165","nm":"대구실내체육관(A)","lat":35.8937540996,"lng":128.6030101446,"addr":"대구광역시 북구 대구체육관로 39","isOpenAtNight":"N","hasBell":"N","male":3,"female":0,"type":"공중화장실"},{"id":"202434500000102228","nm":"태전동 1001번지 하천 인근 화장실","lat":35.929421222,"lng":128.5522213748,"addr":"대구광역시 북구 태전동 1001","isOpenAtNight":"N","hasBell":"Y","male":1,"female":3,"type":"개방화장실"},{"id":"202434500000102284","nm":"대구개인택시조합충전소","lat":35.910036471,"lng":128.6253350537,"addr":"대구광역시 북구 검단로 174","isOpenAtNight":"N","hasBell":"N","male":1,"female":2,"type":"개방화장실"},{"id":"202434500000102255","nm":"한강근린공원","lat":35.8992007457,"lng":128.5134739033,"addr":"대구광역시 북구 사수동 811","isOpenAtNight":"N","hasBell":"Y","male":2,"female":6,"type":"개방화장실"},{"id":"202434500000102218","nm":"대구광역시 여성회관","lat":35.8943060429,"lng":128.555050219,"addr":"대구광역시 북구 팔달로1길 26","isOpenAtNight":"N","hasBell":"N","male":2,"female":15,"type":"개방화장실"},{"id":"202434500000102231","nm":"읍내동1234-125 하천 인근 화장실","lat":35.9422528591,"lng":128.5554685084,"addr":"대구광역시 북구 읍내동 1234-125","isOpenAtNight":"N","hasBell":"Y","male":1,"female":2,"type":"개방화장실"},{"id":"202434500000102405","nm":"북대구세무서","lat":35.8878818402,"lng":128.5834555611,"addr":"대구광역시 북구 원대로 118","isOpenAtNight":"N","hasBell":"N","male":12,"female":12,"type":"개방화장실"},{"id":"202434500000102333","nm":"천일에너지 천일주유소","lat":35.8953713411,"lng":128.5256339777,"addr":"대구광역시 북구 사수로 436","isOpenAtNight":"N","hasBell":"N","male":1,"female":2,"type":"개방화장실"},{"id":"202534500000100003","nm":"금호강 16번","lat":35.9264,"lng":128.625934,"addr":"대구광역시 북구 검단동 121-3","isOpenAtNight":"N","hasBell":"Y","male":0,"female":3,"type":"개방화장실"},{"id":"202434500000102272","nm":"구암테니스장","lat":35.941006145,"lng":128.5730582636,"addr":"대구광역시 북구 구암로60길 87","isOpenAtNight":"N","hasBell":"Y","male":1,"female":3,"type":"개방화장실"},{"id":"202434500000102250","nm":"참물샘공원","lat":35.9338815275,"lng":128.556077741,"addr":"대구광역시 북구 팔거천동로 108","isOpenAtNight":"N","hasBell":"Y","male":1,"female":1,"type":"개방화장실"},{"id":"202434500000102174","nm":"대불노인복지관","lat":35.8986817473,"lng":128.6169046058,"addr":"대구광역시 북구 검단로 8-14","isOpenAtNight":"N","hasBell":"Y","male":9,"female":9,"type":"개방화장실"},{"id":"202434500000102227","nm":"태전동 628-6번지 하천 인근 화장실","lat":35.9127617246,"lng":128.5433757153,"addr":"대구광역시 북구 학정로 6","isOpenAtNight":"N","hasBell":"Y","male":0,"female":2,"type":"개방화장실"},{"id":"202434500000102170","nm":"시민운동장 정구장","lat":35.8830193455,"lng":128.5861543004,"addr":"대구광역시 북구 고성로 191","isOpenAtNight":"N","hasBell":"N","male":3,"female":4,"type":"공중화장실"},{"id":"202434500000102294","nm":"북대구LPG충전소","lat":35.9016714369,"lng":128.5940264887,"addr":"대구광역시 북구 동북로 3","isOpenAtNight":"N","hasBell":"N","male":1,"female":1,"type":"개방화장실"},{"id":"202434500000102416","nm":"대구동천동우체국","lat":35.9320508561,"lng":128.5580578916,"addr":"대구광역시 북구 동천로 3","isOpenAtNight":"N","hasBell":"N","male":0,"female":1,"type":"개방화장실"},{"id":"202434500000102245","nm":"구암어린이공원","lat":35.9264902456,"lng":128.5590393171,"addr":"대구광역시 북구 학정로48길 7-16","isOpenAtNight":"N","hasBell":"Y","male":1,"female":1,"type":"개방화장실"},{"id":"202534500000100014","nm":"읍내(춘천)졸음쉼터","lat":35.94,"lng":128.54,"addr":"대구광역시 북구 중앙고속도로","isOpenAtNight":"N","hasBell":"Y","male":0,"female":1,"type":"간이화장실"},{"id":"202534500000100006","nm":"금호강 19번","lat":35.903404,"lng":128.594784,"addr":"대구광역시 북구 산격동 722-1","isOpenAtNight":"N","hasBell":"N","male":2,"female":2,"type":"개방화장실"},{"id":"202434500000102412","nm":"대구지방국세청 정보화센터","lat":35.8883080772,"lng":128.583537802,"addr":"대구광역시 북구 원대로 124","isOpenAtNight":"N","hasBell":"N","male":5,"female":12,"type":"개방화장실"},{"id":"202434500000102346","nm":"(주)진양에너지","lat":35.8907659237,"lng":128.5635349483,"addr":"대구광역시 북구 노원로 3","isOpenAtNight":"N","hasBell":"N","male":1,"female":1,"type":"개방화장실"},{"id":"202434500000102246","nm":"함지근린공원","lat":35.9425354507,"lng":128.569404501,"addr":"대구광역시 북구 동암로38길 12","isOpenAtNight":"N","hasBell":"Y","male":3,"female":6,"type":"개방화장실"},{"id":"202434500000102354","nm":"칠곡제일주유소","lat":35.9473620602,"lng":128.5727332194,"addr":"대구광역시 북구 구리로 161","isOpenAtNight":"N","hasBell":"N","male":1,"female":1,"type":"개방화장실"},{"id":"202534500000100010","nm":"침산3동 자율방범대 인근 공중화장실","lat":35.893544,"lng":128.586887,"addr":"대구광역시 북구 침산동 496-7","isOpenAtNight":"N","hasBell":"Y","male":1,"female":2,"type":"개방화장실"},{"id":"202434500000102434","nm":"동천역(지상철3호선)","lat":35.9377067069,"lng":128.556638741,"addr":"대구광역시 북구 팔거천동로 147","isOpenAtNight":"N","hasBell":"Y","male":2,"female":4,"type":"개방화장실"},{"id":"202434500000102200","nm":"산격3동 행정복지센터","lat":35.8936555656,"lng":128.6101655246,"addr":"대구광역시 북구 대학로 95","isOpenAtNight":"N","hasBell":"Y","male":3,"female":6,"type":"개방화장실"},{"id":"202434500000102351","nm":"(주)영신에너지","lat":35.8985530306,"lng":128.5783800392,"addr":"대구광역시 북구 노원로 164","isOpenAtNight":"N","hasBell":"N","male":0,"female":0,"type":"개방화장실"},{"id":"202434500000102373","nm":"대구종합유통단지 전기조명관","lat":35.9056960306,"lng":128.6082751557,"addr":"대구광역시 북구 유통단지로 50","isOpenAtNight":"N","hasBell":"N","male":17,"female":12,"type":"개방화장실"},{"id":"202434500000102220","nm":"매천동 587-5번지 하천 인근 화장실","lat":35.9044306128,"lng":128.5457806149,"addr":"대구광역시 북구 매천로18길 39","isOpenAtNight":"N","hasBell":"Y","male":1,"female":1,"type":"개방화장실"},{"id":"202434500000102436","nm":"학정역(지상철3호선)","lat":35.9515881375,"lng":128.5591903859,"addr":"대구광역시 북구 팔거천동로 310","isOpenAtNight":"N","hasBell":"Y","male":1,"female":4,"type":"개방화장실"},{"id":"202434500000102182","nm":"어울아트센터 함지홀","lat":35.9358673493,"lng":128.5451287154,"addr":"대구광역시 북구 구암로 47","isOpenAtNight":"N","hasBell":"Y","male":9,"female":17,"type":"개방화장실"},{"id":"202434500000102262","nm":"침산공원(B)","lat":35.8972648627,"lng":128.5848574102,"addr":"대구광역시 북구 침산동 1329","isOpenAtNight":"N","hasBell":"Y","male":3,"female":3,"type":"개방화장실"},{"id":"202434500000102184","nm":"대구 오페라하우스 대공연장","lat":35.883465347,"lng":128.5922331491,"addr":"대구광역시 북구 호암로 15","isOpenAtNight":"N","hasBell":"N","male":14,"female":58,"type":"공중화장실"},{"id":"202434500000102168","nm":"시민운동장 스쿼시장","lat":35.8830193455,"lng":128.5861543004,"addr":"대구광역시 북구 고성로 191","isOpenAtNight":"N","hasBell":"Y","male":2,"female":4,"type":"공중화장실"},{"id":"202434500000102304","nm":"㈜ISP스퀘어북대구주유소","lat":35.9289742177,"lng":128.5984069206,"addr":"대구광역시 북구 호국로 303","isOpenAtNight":"N","hasBell":"N","male":1,"female":1,"type":"개방화장실"},{"id":"202434500000102374","nm":"롯데백화점 대구점","lat":35.8758076636,"lng":128.5960385826,"addr":"대구광역시 북구 태평로 161","isOpenAtNight":"N","hasBell":"Y","male":45,"female":22,"type":"공중화장실"},{"id":"202434500000102180","nm":"농업인회관","lat":35.9564634507,"lng":128.5586781744,"addr":"대구광역시 북구 칠곡중앙대로136길 30","isOpenAtNight":"N","hasBell":"N","male":14,"female":18,"type":"공중화장실"},{"id":"202434500000102291","nm":"남경LPG충전소","lat":35.8975038104,"lng":128.5251948977,"addr":"대구광역시 북구 사수로 406","isOpenAtNight":"N","hasBell":"N","male":1,"female":2,"type":"개방화장실"},{"id":"202534500000100021","nm":"금호강 13번","lat":35.899308,"lng":128.625847,"addr":"대구광역시 북구 복현동 272","isOpenAtNight":"N","hasBell":"Y","male":1,"female":2,"type":"개방화장실"},{"id":"202434500000102428","nm":"매천시장역(지상철3호선)","lat":35.9044306128,"lng":128.5457806149,"addr":"대구광역시 북구 매천로18길 39","isOpenAtNight":"N","hasBell":"Y","male":2,"female":5,"type":"개방화장실"},{"id":"202434500000102281","nm":"팔거천 새솔유치원 맞은편","lat":35.9495524125,"lng":128.5555703643,"addr":"대구광역시 북구 동암로7길 39","isOpenAtNight":"N","hasBell":"Y","male":1,"female":3,"type":"개방화장실"},{"id":"202434500000102303","nm":"까치주유소","lat":35.9306282651,"lng":128.5995488751,"addr":"대구광역시 북구 호국로 322","isOpenAtNight":"N","hasBell":"N","male":1,"female":1,"type":"개방화장실"},{"id":"202434500000102290","nm":"한신가스충전소","lat":35.9012919174,"lng":128.5846906088,"addr":"대구광역시 북구 노원로 229","isOpenAtNight":"N","hasBell":"N","male":1,"female":1,"type":"개방화장실"},{"id":"202534500000100001","nm":"금호강 14번","lat":35.899308,"lng":128.625847,"addr":"대구광역시 북구 복현동 272","isOpenAtNight":"N","hasBell":"Y","male":1,"female":3,"type":"개방화장실"},{"id":"202534500000100009","nm":"금호강 23번","lat":35.900648,"lng":128.564785,"addr":"대구광역시 북구 노곡동 876","isOpenAtNight":"N","hasBell":"N","male":2,"female":5,"type":"개방화장실"},{"id":"202434500000102320","nm":"대훈남주유소","lat":35.9113696864,"lng":128.5489204375,"addr":"대구광역시 북구 칠곡중앙대로 174","isOpenAtNight":"N","hasBell":"N","male":1,"female":1,"type":"개방화장실"},{"id":"202434500000102296","nm":"무지개주유소","lat":35.902329288,"lng":128.5966088592,"addr":"대구광역시 북구 연암로 198","isOpenAtNight":"N","hasBell":"N","male":2,"female":2,"type":"개방화장실"},{"id":"202434500000102274","nm":"검단 파크골프장 2","lat":35.9247723821,"lng":128.6223857862,"addr":"대구광역시 북구 검단동 1399-1","isOpenAtNight":"N","hasBell":"Y","male":0,"female":2,"type":"개방화장실"},{"id":"202434500000102219","nm":"(재)대구오페라하우스","lat":35.883465347,"lng":128.5922331491,"addr":"대구광역시 북구 호암로 15","isOpenAtNight":"N","hasBell":"N","male":25,"female":72,"type":"공중화장실"},{"id":"202434500000102316","nm":"현대오일뱅크(주)칠곡주유소","lat":35.938559533,"lng":128.5499486486,"addr":"대구광역시 북구 칠곡중앙대로 482","isOpenAtNight":"N","hasBell":"N","male":1,"female":1,"type":"개방화장실"},{"id":"202434500000102353","nm":"정다운주유소","lat":35.9320605001,"lng":128.5662966148,"addr":"대구광역시 북구 구암로 232","isOpenAtNight":"N","hasBell":"N","male":0,"female":0,"type":"개방화장실"},{"id":"202434500000102178","nm":"북부소방서","lat":35.8780015545,"lng":128.59231389,"addr":"대구광역시 북구 칠성남로 112","isOpenAtNight":"N","hasBell":"N","male":3,"female":2,"type":"개방화장실"},{"id":"202434500000102378","nm":"대구종합유통단지 섬유제품관","lat":35.9062792349,"lng":128.6096611066,"addr":"대구광역시 북구 유통단지로 60","isOpenAtNight":"N","hasBell":"N","male":40,"female":62,"type":"개방화장실"},{"id":"202434500000102236","nm":"관음근린공원","lat":35.9362397551,"lng":128.5466985734,"addr":"대구광역시 북구 칠곡중앙대로91길 21","isOpenAtNight":"N","hasBell":"Y","male":2,"female":4,"type":"개방화장실"},{"id":"202434500000102388","nm":"칠성시장(신천둔치)","lat":35.8769795704,"lng":128.6045009808,"addr":"대구광역시 북구 칠성동1가 276-99","isOpenAtNight":"N","hasBell":"N","male":9,"female":0,"type":"개방화장실"},{"id":"202434500000102360","nm":"천지주유소","lat":35.8962604279,"lng":128.5215702633,"addr":"대구광역시 북구 사수로 369","isOpenAtNight":"N","hasBell":"N","male":1,"female":2,"type":"개방화장실"},{"id":"202434500000102357","nm":"현대오일뱅크(주)유통단지주유소","lat":35.9057923574,"lng":128.6180468192,"addr":"대구광역시 북구 검단로 93","isOpenAtNight":"N","hasBell":"N","male":2,"female":1,"type":"개방화장실"},{"id":"202434500000102234","nm":"신락어린이공원","lat":35.9446474252,"lng":128.5448628137,"addr":"대구광역시 북구 관음중앙로 117-11","isOpenAtNight":"N","hasBell":"Y","male":1,"female":1,"type":"개방화장실"},{"id":"202434500000102213","nm":"태전1동 행정복지센터","lat":35.9241286969,"lng":128.5434005057,"addr":"대구광역시 북구 태전로7길 10-24","isOpenAtNight":"N","hasBell":"Y","male":2,"female":2,"type":"개방화장실"},{"id":"202434500000102225","nm":"팔달동 524-32번지 하천 인근 화장실","lat":35.8971866489,"lng":128.548377233,"addr":"대구광역시 북구 팔달동 524-32","isOpenAtNight":"N","hasBell":"Y","male":0,"female":2,"type":"개방화장실"},{"id":"202434500000102239","nm":"옻골문화공원","lat":35.9441715641,"lng":128.5764026716,"addr":"대구광역시 북구 구암로 388-25","isOpenAtNight":"N","hasBell":"Y","male":3,"female":6,"type":"개방화장실"},{"id":"202434500000102233","nm":"읍내동 1234-68번지 하천 인근 화장실","lat":35.9549788297,"lng":128.5562273973,"addr":"대구광역시 북구 읍내동 1234-68","isOpenAtNight":"N","hasBell":"Y","male":0,"female":2,"type":"개방화장실"},{"id":"202434500000102217","nm":"대구광역시시립북부도서관","lat":35.8851241054,"lng":128.583842705,"addr":"대구광역시 북구 옥산로 75","isOpenAtNight":"N","hasBell":"Y","male":7,"female":7,"type":"공중화장실"},{"id":"202434500000102298","nm":"케이케이㈜침산2주유소","lat":35.9021746846,"lng":128.5958947899,"addr":"대구광역시 북구 동북로 21","isOpenAtNight":"N","hasBell":"N","male":2,"female":2,"type":"개방화장실"},{"id":"202434500000102437","nm":"칠곡경대병원역(지상철3호선)","lat":35.9584367791,"lng":128.559883086,"addr":"대구광역시 북구 팔거천동로 386","isOpenAtNight":"N","hasBell":"Y","male":1,"female":4,"type":"개방화장실"},{"id":"202434500000102355","nm":"한국광유㈜칠곡IC주유소","lat":35.9430719568,"lng":128.5420186051,"addr":"대구광역시 북구 관음로 141","isOpenAtNight":"N","hasBell":"N","male":1,"female":2,"type":"개방화장실"},{"id":"202434500000102283","nm":"북구 구민운동장","lat":35.9442722014,"lng":128.5738227144,"addr":"대구광역시 북구 구암로 391","isOpenAtNight":"N","hasBell":"Y","male":1,"female":4,"type":"개방화장실"},{"id":"202434500000102335","nm":"구도일주유소대구","lat":35.910872386,"lng":128.5420643565,"addr":"대구광역시 북구 매천로 153","isOpenAtNight":"N","hasBell":"N","male":1,"female":1,"type":"개방화장실"},{"id":"202434500000102369","nm":"칠곡가톨릭병원","lat":35.9349166928,"lng":128.549291243,"addr":"대구광역시 북구 칠곡중앙대로 440","isOpenAtNight":"N","hasBell":"Y","male":12,"female":14,"type":"개방화장실"},{"id":"202434500000102359","nm":"㈜HC에너지 연경1주유소","lat":35.9416000193,"lng":128.6137371085,"addr":"대구광역시 북구 동화천로 207","isOpenAtNight":"N","hasBell":"N","male":2,"female":2,"type":"개방화장실"},{"id":"202434500000102244","nm":"진달래어린이공원","lat":35.928430975,"lng":128.5586236676,"addr":"대구광역시 북구 구암동 695-4","isOpenAtNight":"N","hasBell":"Y","male":1,"female":1,"type":"개방화장실"},{"id":"202434500000102297","nm":"미니주유소","lat":35.8861778349,"lng":128.5999445838,"addr":"대구광역시 북구 침산남로 224","isOpenAtNight":"N","hasBell":"N","male":1,"female":0,"type":"개방화장실"},{"id":"202434500000102207","nm":"산격1동 행정복지센터","lat":35.9003916098,"lng":128.5968904634,"addr":"대구광역시 북구 연암로36길 6","isOpenAtNight":"N","hasBell":"N","male":3,"female":6,"type":"개방화장실"},{"id":"202434500000102229","nm":"동천동 958 하천 인근 화장실","lat":35.9377067069,"lng":128.556638741,"addr":"대구광역시 북구 동천동 958","isOpenAtNight":"N","hasBell":"Y","male":1,"female":3,"type":"개방화장실"},{"id":"202534500000100002","nm":"금호강 15번","lat":35.9264,"lng":128.625934,"addr":"대구광역시 북구 검단동 121-4","isOpenAtNight":"N","hasBell":"Y","male":0,"female":2,"type":"개방화장실"},{"id":"202434500000102324","nm":"칠곡중앙대로주유소","lat":35.9062959782,"lng":128.5477044604,"addr":"대구광역시 북구 칠곡중앙대로 120","isOpenAtNight":"N","hasBell":"N","male":1,"female":1,"type":"개방화장실"},{"id":"202434500000102422","nm":"대구고성동우체국","lat":35.8827147097,"lng":128.5818198105,"addr":"대구광역시 북구 원대로 60","isOpenAtNight":"N","hasBell":"N","male":3,"female":3,"type":"개방화장실"},{"id":"202434500000102197","nm":"노원동 행정복지센터","lat":35.8901476316,"lng":128.5762257734,"addr":"대구광역시 북구 노원로10길 166","isOpenAtNight":"N","hasBell":"N","male":1,"female":2,"type":"개방화장실"},{"id":"202434500000102287","nm":"개인택시제5충전소","lat":35.8908680558,"lng":128.5580902329,"addr":"대구광역시 북구 팔달로 67","isOpenAtNight":"N","hasBell":"N","male":1,"female":1,"type":"개방화장실"},{"id":"202434500000102202","nm":"산격2동 행정복지센터","lat":35.9017327782,"lng":128.6092543543,"addr":"대구광역시 북구 동북로31길 30","isOpenAtNight":"N","hasBell":"N","male":1,"female":3,"type":"개방화장실"},{"id":"202434500000102440","nm":"팔달시장역(지상철3호선)","lat":35.8918075222,"lng":128.5536583387,"addr":"대구광역시 북구 팔달로 163-1","isOpenAtNight":"N","hasBell":"Y","male":2,"female":6,"type":"개방화장실"},{"id":"202434500000102400","nm":"코스트코 홀세일","lat":35.9063710684,"lng":128.6181001401,"addr":"대구광역시 북구 검단로 97","isOpenAtNight":"N","hasBell":"Y","male":14,"female":20,"type":"공중화장실"},{"id":"202434500000102401","nm":"건강보험공단대구북부지사","lat":35.8872694106,"lng":128.5975060506,"addr":"대구광역시 북구 침산남로 199","isOpenAtNight":"N","hasBell":"Y","male":6,"female":9,"type":"개방화장실"},{"id":"202434500000102311","nm":"대성주유소","lat":35.882037633,"lng":128.5900798554,"addr":"대구광역시 북구 침산로 62","isOpenAtNight":"N","hasBell":"N","male":2,"female":1,"type":"개방화장실"},{"id":"202434500000102419","nm":"대구산격동우체국","lat":35.8908841696,"lng":128.598764186,"addr":"대구광역시 북구 연암로 42","isOpenAtNight":"N","hasBell":"N","male":2,"female":2,"type":"개방화장실"},{"id":"202434500000102399","nm":"대구종합유통단지 산업용재관","lat":35.9049657723,"lng":128.6063955718,"addr":"대구광역시 북구 유통단지로 16","isOpenAtNight":"N","hasBell":"N","male":37,"female":38,"type":"개방화장실"},{"id":"202434500000102420","nm":"대구노원동우체국","lat":35.8885503083,"lng":128.5713958298,"addr":"대구광역시 북구 팔달로 195","isOpenAtNight":"N","hasBell":"N","male":0,"female":0,"type":"개방화장실"},{"id":"202434500000102390","nm":"칠곡시장","lat":35.9425249571,"lng":128.5512210271,"addr":"대구광역시 북구 칠곡중앙대로 526","isOpenAtNight":"N","hasBell":"N","male":4,"female":9,"type":"개방화장실"},{"id":"202434500000102289","nm":"복현LPG충전소","lat":35.8972523502,"lng":128.6149841064,"addr":"대구광역시 북구 동북로 212","isOpenAtNight":"N","hasBell":"N","male":2,"female":2,"type":"개방화장실"},{"id":"202434500000102222","nm":"동변동 617-1번지 하천 인근 화장실","lat":35.920905809,"lng":128.6120486548,"addr":"대구광역시 북구 동변동 617-1","isOpenAtNight":"N","hasBell":"Y","male":0,"female":2,"type":"개방화장실"},{"id":"202434500000102195","nm":"국우동 행정복지센터","lat":35.9480267241,"lng":128.5753997333,"addr":"대구광역시 북구 구리로 188","isOpenAtNight":"N","hasBell":"N","male":2,"female":2,"type":"개방화장실"},{"id":"202434500000102254","nm":"들샘어린이공원","lat":35.8965288482,"lng":128.6169042269,"addr":"대구광역시 북구 동북로 229","isOpenAtNight":"N","hasBell":"Y","male":1,"female":1,"type":"개방화장실"},{"id":"202434500000102327","nm":"현대오일뱅크(주)대구현대주유소","lat":35.9102083412,"lng":128.6075445766,"addr":"대구광역시 북구 유통단지로13길 38","isOpenAtNight":"N","hasBell":"N","male":1,"female":1,"type":"개방화장실"},{"id":"202534500000100008","nm":"금호강 22번","lat":35.901733,"lng":128.567136,"addr":"대구광역시 북구 노곡동 983-2","isOpenAtNight":"N","hasBell":"N","male":2,"female":5,"type":"개방화장실"},{"id":"202434500000102356","nm":"한영주유소","lat":35.899521372,"lng":128.6231196525,"addr":"대구광역시 북구 공항로 73","isOpenAtNight":"N","hasBell":"N","male":1,"female":0,"type":"개방화장실"},{"id":"202434500000102169","nm":"시민운동장 시민체육관","lat":35.8830193455,"lng":128.5861543004,"addr":"대구광역시 북구 고성로 191","isOpenAtNight":"N","hasBell":"N","male":7,"female":11,"type":"공중화장실"},{"id":"202534500000100005","nm":"금호강 18번","lat":35.908894,"lng":128.60151,"addr":"대구광역시 북구 산격동 1477-1","isOpenAtNight":"N","hasBell":"Y","male":1,"female":3,"type":"개방화장실"},{"id":"202434500000102339","nm":"중앙주유소","lat":35.8918400368,"lng":128.6245031608,"addr":"대구광역시 북구 동북로 315","isOpenAtNight":"N","hasBell":"N","male":1,"female":2,"type":"개방화장실"},{"id":"202434500000102253","nm":"매천근린공원","lat":35.9093024452,"lng":128.5447759176,"addr":"대구광역시 북구 매천동 671","isOpenAtNight":"N","hasBell":"Y","male":2,"female":5,"type":"개방화장실"},{"id":"202434500000102280","nm":"팔거천 게이트볼장","lat":35.9406114924,"lng":128.5571934487,"addr":"대구광역시 북구 읍내동 1234-159","isOpenAtNight":"N","hasBell":"Y","male":1,"female":3,"type":"개방화장실"},{"id":"202434500000102268","nm":"옻골다목적구장","lat":35.9432637986,"lng":128.5769522148,"addr":"대구광역시 북구 구암동 14","isOpenAtNight":"N","hasBell":"Y","male":0,"female":1,"type":"개방화장실"},{"id":"202434500000102205","nm":"침산3동 행정복지센터","lat":35.8920180351,"lng":128.5893249272,"addr":"대구광역시 북구 성북로 55","isOpenAtNight":"N","hasBell":"Y","male":2,"female":5,"type":"개방화장실"},{"id":"202434500000102331","nm":"GS칼텍스 체육관주유소","lat":35.8946732549,"lng":128.6051016715,"addr":"대구광역시 북구 산격로 45","isOpenAtNight":"N","hasBell":"N","male":2,"female":0,"type":"개방화장실"},{"id":"202434500000102325","nm":"대망주유소","lat":35.8865775176,"lng":128.5976345591,"addr":"대구광역시 북구 중앙대로 601","isOpenAtNight":"N","hasBell":"N","male":1,"female":1,"type":"개방화장실"},{"id":"202434500000102208","nm":"읍내동 행정복지센터","lat":35.9458124962,"lng":128.5505721627,"addr":"대구광역시 북구 칠곡중앙대로 561","isOpenAtNight":"N","hasBell":"Y","male":3,"female":7,"type":"개방화장실"},{"id":"202434500000102278","nm":"노원체육공원 축구장(신규)","lat":35.8990617478,"lng":128.5638393169,"addr":"대구광역시 북구 노곡동 804-1","isOpenAtNight":"N","hasBell":"Y","male":1,"female":1,"type":"개방화장실"},{"id":"202434500000102315","nm":"칠곡중앙셀프주유소","lat":35.9494032125,"lng":128.5520049415,"addr":"대구광역시 북구 칠곡중앙대로 603","isOpenAtNight":"N","hasBell":"N","male":1,"female":1,"type":"개방화장실"},{"id":"202434500000102343","nm":"(주)효성에너지","lat":35.8908803059,"lng":128.6057058341,"addr":"대구광역시 북구 대학로 45","isOpenAtNight":"N","hasBell":"N","male":1,"female":0,"type":"개방화장실"},{"id":"202434500000102183","nm":"어울아트센터","lat":35.9358673493,"lng":128.5451287154,"addr":"대구광역시 북구 구암로 47","isOpenAtNight":"N","hasBell":"Y","male":8,"female":13,"type":"개방화장실"},{"id":"202434500000102235","nm":"송암어린이공원","lat":35.9431264833,"lng":128.5473317998,"addr":"대구광역시 북구 관음동로 113","isOpenAtNight":"N","hasBell":"Y","male":1,"female":1,"type":"개방화장실"},{"id":"202434500000102252","nm":"동천근린공원","lat":35.9343587058,"lng":128.5592898921,"addr":"대구광역시 북구 동천동 950-1","isOpenAtNight":"N","hasBell":"Y","male":2,"female":2,"type":"개방화장실"},{"id":"202434500000102196","nm":"구암동 행정복지센터","lat":35.9389322231,"lng":128.5660406096,"addr":"대구광역시 북구 구암서로 32","isOpenAtNight":"N","hasBell":"Y","male":3,"female":5,"type":"개방화장실"},{"id":"202434500000102433","nm":"구암역(지상철3호선)","lat":35.9256614163,"lng":128.550325708,"addr":"대구광역시 북구 팔거천동로 1","isOpenAtNight":"N","hasBell":"Y","male":2,"female":5,"type":"개방화장실"},{"id":"202434500000102431","nm":"대구역(지하철 1호선)","lat":35.8762826983,"lng":128.597892261,"addr":"대구광역시 북구 칠성남로30길 28","isOpenAtNight":"N","hasBell":"Y","male":6,"female":7,"type":"개방화장실"},{"id":"202434500000102430","nm":"태전역(지상철3호선)","lat":35.9196710628,"lng":128.5473935165,"addr":"대구광역시 북구 칠곡중앙대로 262","isOpenAtNight":"N","hasBell":"Y","male":2,"female":5,"type":"개방화장실"},{"id":"202434500000102439","nm":"만평역(지상철3호선)","lat":35.8898413887,"lng":128.5610731219,"addr":"대구광역시 북구 팔달로 105","isOpenAtNight":"N","hasBell":"Y","male":2,"female":6,"type":"개방화장실"},{"id":"202434500000102185","nm":"북구청소년문화의집","lat":35.9458124962,"lng":128.5505721627,"addr":"대구광역시 북구 칠곡중앙대로 561","isOpenAtNight":"N","hasBell":"N","male":3,"female":9,"type":"개방화장실"},{"id":"202434500000102421","nm":"대구칠곡우체국","lat":35.9472940774,"lng":128.5510866315,"addr":"대구광역시 북구 칠곡중앙대로 577","isOpenAtNight":"N","hasBell":"N","male":0,"female":0,"type":"개방화장실"},{"id":"202434500000102345","nm":"대구주유소","lat":35.8956401641,"lng":128.5718829482,"addr":"대구광역시 북구 노원로 97","isOpenAtNight":"N","hasBell":"N","male":1,"female":1,"type":"개방화장실"},{"id":"202434500000102425","nm":"대구강북경찰서","lat":35.9434528308,"lng":128.56530434,"addr":"대구광역시 북구 동암로 130","isOpenAtNight":"N","hasBell":"Y","male":2,"female":5,"type":"개방화장실"},{"id":"202434500000102336","nm":"한국광유(주)칠곡매천주유소","lat":35.9103817933,"lng":128.5418826956,"addr":"대구광역시 북구 매천로 149","isOpenAtNight":"N","hasBell":"N","male":1,"female":1,"type":"개방화장실"},{"id":"202434500000102257","nm":"연암근린공원","lat":35.8995132806,"lng":128.6030771142,"addr":"대구광역시 북구 연암공원로 112","isOpenAtNight":"N","hasBell":"Y","male":2,"female":5,"type":"개방화장실"},{"id":"202434500000102314","nm":"미희주유소","lat":35.9508028327,"lng":128.553372009,"addr":"대구광역시 북구 칠곡중앙대로 624","isOpenAtNight":"N","hasBell":"N","male":1,"female":1,"type":"개방화장실"},{"id":"202434500000102192","nm":"검단동 행정복지센터","lat":35.9137203189,"lng":128.6297660062,"addr":"대구광역시 북구 검단로 230","isOpenAtNight":"N","hasBell":"Y","male":1,"female":5,"type":"개방화장실"},{"id":"202434500000102306","nm":"GS칼텍스 흥구석유 원대주유소","lat":35.8908680558,"lng":128.5580902329,"addr":"대구광역시 북구 팔달로 67","isOpenAtNight":"N","hasBell":"N","male":2,"female":1,"type":"개방화장실"},{"id":"202434500000102238","nm":"운암지 수변공원","lat":35.93241418,"lng":128.5674979308,"addr":"대구광역시 북구 구암동 349","isOpenAtNight":"N","hasBell":"Y","male":2,"female":4,"type":"개방화장실"},{"id":"202434500000102305","nm":"동서변주유소","lat":35.9142007232,"lng":128.5995646478,"addr":"대구광역시 북구 호국로 141","isOpenAtNight":"N","hasBell":"N","male":1,"female":2,"type":"개방화장실"},{"id":"202434500000102186","nm":"북구청소년회관","lat":35.9057801282,"lng":128.6160511589,"addr":"대구광역시 북구 검단로 71-17","isOpenAtNight":"N","hasBell":"N","male":10,"female":16,"type":"개방화장실"},{"id":"202434500000102221","nm":"연경동 1083번지 하천 인근화장실","lat":35.9384816564,"lng":128.6105492555,"addr":"대구광역시 북구 연경동 1083","isOpenAtNight":"N","hasBell":"Y","male":1,"female":3,"type":"개방화장실"},{"id":"202434500000102322","nm":"패밀리주유소","lat":35.9087282573,"lng":128.5486198238,"addr":"대구광역시 북구 칠곡중앙대로 146","isOpenAtNight":"N","hasBell":"N","male":1,"female":1,"type":"개방화장실"},{"id":"202434500000102176","nm":"산격종합사회복지관","lat":35.9010967225,"lng":128.5958895364,"addr":"대구광역시 북구 연암로 183","isOpenAtNight":"N","hasBell":"N","male":5,"female":6,"type":"개방화장실"},{"id":"202434500000102370","nm":"강병원 (의료법인 강의료재단)","lat":35.8937325144,"lng":128.5699421374,"addr":"대구광역시 북구 노원로 70","isOpenAtNight":"N","hasBell":"N","male":25,"female":20,"type":"개방화장실"},{"id":"202434500000102171","nm":"시민운동장 유소년축구장","lat":35.8830193455,"lng":128.5861543004,"addr":"대구광역시 북구 고성로 191","isOpenAtNight":"N","hasBell":"N","male":3,"female":3,"type":"공중화장실"},{"id":"202434500000102164","nm":"유니버시아드레포츠센터","lat":35.9279990848,"lng":128.5979478756,"addr":"대구광역시 북구 호국로57길 6","isOpenAtNight":"N","hasBell":"N","male":1,"female":27,"type":"공중화장실"},{"id":"202434500000102224","nm":"서변동 1630-272번지 하천 인근 화장실","lat":35.9156672764,"lng":128.5997662896,"addr":"대구광역시 북구 서변동 1630-272","isOpenAtNight":"N","hasBell":"Y","male":1,"female":2,"type":"개방화장실"},{"id":"202434500000102179","nm":"북구자원봉사센터","lat":35.9447246833,"lng":128.5758673226,"addr":"대구광역시 북구 구암로 388-17","isOpenAtNight":"N","hasBell":"N","male":2,"female":0,"type":"개방화장실"},{"id":"202434500000102199","nm":"동천동 행정복지센터","lat":35.9373274954,"lng":128.5581812992,"addr":"대구광역시 북구 대천로 81","isOpenAtNight":"N","hasBell":"N","male":6,"female":9,"type":"개방화장실"},{"id":"202434500000102352","nm":"구암주유소","lat":35.940625849,"lng":128.5703140804,"addr":"대구광역시 북구 구암로 340","isOpenAtNight":"N","hasBell":"N","male":1,"female":1,"type":"개방화장실"},{"id":"202434500000102371","nm":"대구종합유통단지 전자상가","lat":35.9054570543,"lng":128.6049819691,"addr":"대구광역시 북구 유통단지로 25","isOpenAtNight":"N","hasBell":"N","male":24,"female":29,"type":"개방화장실"},{"id":"202434500000102309","nm":"㈜동천주유소","lat":35.9415335511,"lng":128.5576196012,"addr":"대구광역시 북구 팔거천동로 197","isOpenAtNight":"N","hasBell":"N","male":1,"female":1,"type":"개방화장실"},{"id":"202434500000102204","nm":"복현2동 행정복지센터","lat":35.8953628325,"lng":128.625489605,"addr":"대구광역시 북구 복현로8길 16-5","isOpenAtNight":"N","hasBell":"Y","male":0,"female":1,"type":"개방화장실"},{"id":"202434500000102414","nm":"대구태전동우체국","lat":35.9123207792,"lng":128.5468426901,"addr":"대구광역시 북구 매전로 74","isOpenAtNight":"N","hasBell":"N","male":1,"female":2,"type":"개방화장실"},{"id":"202434500000102409","nm":"KT북대구지사","lat":35.9316874962,"lng":128.5530324687,"addr":"대구광역시 북구 구암로 110","isOpenAtNight":"N","hasBell":"N","male":11,"female":21,"type":"개방화장실"},{"id":"202434500000102329","nm":"동로주유소","lat":35.8834715844,"lng":128.6026099632,"addr":"대구광역시 북구 신천동로 714","isOpenAtNight":"N","hasBell":"N","male":1,"female":2,"type":"개방화장실"},{"id":"202534500000100015","nm":"북대구 영업소","lat":35.911202,"lng":128.584331,"addr":"대구광역시 북구 서변남로","isOpenAtNight":"N","hasBell":"N","male":1,"female":2,"type":"개방화장실"},{"id":"202434500000102337","nm":"신흥주유소","lat":35.9026072832,"lng":128.6006631568,"addr":"대구광역시 북구 동북로 67 (산격동)","isOpenAtNight":"N","hasBell":"N","male":1,"female":1,"type":"개방화장실"}]}