{"items":[{"id":"202437100000100698","nm":"상진항화장실","lat":35.481231,"lng":129.421329,"addr":"울산광역시 동구 상진길 79-6","isOpenAtNight":"N","hasBell":"Y","male":1,"female":3,"type":"공중화장실"},{"id":"202437100000100690","nm":"동울산시장공영주차장화장실","lat":35.510167,"lng":129.426204,"addr":"울산광역시 동구 진성3길 59","isOpenAtNight":"N","hasBell":"Y","male":2,"female":4,"type":"공중화장실"},{"id":"202437100000100577","nm":"일산동행정복지센터 화장실","lat":35.49901,"lng":129.43133,"addr":"울산광역시 동구 일산진11길 123","isOpenAtNight":"N","hasBell":"Y","male":6,"female":9,"type":"개방화장실"},{"id":"202437100000100697","nm":"봉화재 반려견놀이터화장실","lat":35.49319,"lng":129.413862,"addr":"울산광역시 동구 봉수로 27-54","isOpenAtNight":"N","hasBell":"Y","male":1,"female":2,"type":"공중화장실"},{"id":"202437100000100655","nm":"일산서쪽화장실","lat":35.493847,"lng":129.429599,"addr":"울산광역시 동구 해수욕장4길 24","isOpenAtNight":"N","hasBell":"Y","male":5,"female":7,"type":"공중화장실"},{"id":"202437100000100621","nm":"남목시장","lat":35.542759,"lng":129.427398,"addr":"울산광역시 동구 남목 17길 9","isOpenAtNight":"N","hasBell":"N","male":1,"female":1,"type":"개방화장실"},{"id":"202437100000100629","nm":"방어진위판장화장실","lat":35.484226,"lng":129.430309,"addr":"울산광역시 동구 성끝길 2","isOpenAtNight":"N","hasBell":"Y","male":4,"female":5,"type":"공중화장실"},{"id":"202437100000100648","nm":"전하시장","lat":35.513732,"lng":129.430952,"addr":"울산광역시 동구 녹수 2길 10","isOpenAtNight":"N","hasBell":"N","male":1,"female":1,"type":"개방화장실"},{"id":"202437100000100640","nm":"울산갈릴리교회","lat":35.543125,"lng":129.427367,"addr":"울산광역시 동구 남목18길 27","isOpenAtNight":"N","hasBell":"N","male":1,"female":3,"type":"개방화장실"},{"id":"202437100000100575","nm":"울산광역시 동구청 의회동 화장실","lat":35.505808,"lng":129.417218,"addr":"울산광역시 동구 봉수로 155","isOpenAtNight":"N","hasBell":"Y","male":4,"female":10,"type":"개방화장실"},{"id":"202437100000100683","nm":"복지불공원화장실","lat":35.484825,"lng":129.419673,"addr":"울산광역시 동구 문재7가길 26","isOpenAtNight":"N","hasBell":"Y","male":0,"female":1,"type":"공중화장실"},{"id":"202437100000100638","nm":"남목3동주민센터공중화장실","lat":35.541801,"lng":129.433333,"addr":"울산광역시 동구 동해안로 100","isOpenAtNight":"N","hasBell":"Y","male":1,"female":1,"type":"개방화장실"},{"id":"202437100000100630","nm":"방어진활어센터","lat":35.48356,"lng":129.424246,"addr":"울산광역시 동구 중진 2길 5","isOpenAtNight":"N","hasBell":"N","male":2,"female":3,"type":"개방화장실"},{"id":"202437100000100672","nm":"슬도방파제화장실","lat":35.478039,"lng":129.42943,"addr":"울산광역시 동구 성끝길 122","isOpenAtNight":"N","hasBell":"Y","male":1,"female":1,"type":"공중화장실"},{"id":"202437100000100603","nm":"전하공영주차장 화장실","lat":35.510757,"lng":129.429364,"addr":"울산광역시 동구 진성8길 119","isOpenAtNight":"N","hasBell":"N","male":1,"female":1,"type":"공중화장실"},{"id":"202437100000100580","nm":"전하1동주민센터","lat":35.5167974,"lng":129.4286169,"addr":"울산광역시 동구 바드래3길55","isOpenAtNight":"N","hasBell":"N","male":4,"female":4,"type":"개방화장실"},{"id":"202437100000100588","nm":"동구평생학습관","lat":35.509434,"lng":129.4292761,"addr":"울산광역시 동구 진성8길 91, 2층, 3층","isOpenAtNight":"N","hasBell":"N","male":2,"female":4,"type":"개방화장실"},{"id":"202437100000100599","nm":"동구장애인보호작업장 화장실","lat":35.487359,"lng":129.410864,"addr":"울산광역시 동구 문현2길 41-1","isOpenAtNight":"N","hasBell":"N","male":2,"female":3,"type":"개방화장실"},{"id":"202437100000100591","nm":"보훈복지회관","lat":35.487366,"lng":129.411682,"addr":"울산광역시 동구 문현5길 27","isOpenAtNight":"N","hasBell":"N","male":8,"female":8,"type":"개방화장실"},{"id":"202437100000100586","nm":"전하작은도서관 화장실","lat":35.509434,"lng":129.4292761,"addr":"울산광역시 동구 진성8길 91","isOpenAtNight":"N","hasBell":"N","male":0,"female":1,"type":"개방화장실"},{"id":"202437100000100631","nm":"새샘교회","lat":35.48092,"lng":129.409857,"addr":"울산광역시 동구 화잠 7길 6","isOpenAtNight":"N","hasBell":"N","male":3,"female":4,"type":"개방화장실"},{"id":"202437100000100639","nm":"수정각","lat":35.524864,"lng":129.432546,"addr":"울산광역시 동구 명덕 2길 5","isOpenAtNight":"N","hasBell":"N","male":1,"female":2,"type":"개방화장실"},{"id":"202437100000100694","nm":"일산천문화공원화장실","lat":35.505465,"lng":129.42205,"addr":"울산광역시 동구 일산동 443","isOpenAtNight":"N","hasBell":"Y","male":0,"female":1,"type":"공중화장실"},{"id":"202437100000100596","nm":"방어진노인복지관","lat":37.5531163,"lng":126.8331774,"addr":"울산광역시 동구 꽃바위로 356","isOpenAtNight":"N","hasBell":"Y","male":7,"female":12,"type":"개방화장실"},{"id":"202437100000100696","nm":"쟁골공원화장실","lat":35.544689,"lng":129.429724,"addr":"울산광역시 동구 동부동 666-2","isOpenAtNight":"N","hasBell":"Y","male":0,"female":1,"type":"공중화장실"},{"id":"202437100000100607","nm":"한마음새마을금고주유소 화장실","lat":35.4889169,"lng":129.4138605,"addr":"울산광역시 동구 방어진순환도로 420 (방어동)","isOpenAtNight":"N","hasBell":"N","male":1,"female":2,"type":"공중화장실"},{"id":"202437100000100664","nm":"쇠평어린이공원A동화장실","lat":35.551481,"lng":129.434172,"addr":"울산광역시 동구 동해안로 263","isOpenAtNight":"N","hasBell":"Y","male":1,"female":3,"type":"공중화장실"},{"id":"202437100000100622","nm":"남목청소년문화의집","lat":35.541358,"lng":129.425159,"addr":"울산광역시 동구 남목 9길 13","isOpenAtNight":"N","hasBell":"N","male":3,"female":6,"type":"개방화장실"},{"id":"202437100000100582","nm":"남목1동주민센터 화장실","lat":35.539339,"lng":129.420781,"addr":"울산광역시 동구 방어진순환도로 1170","isOpenAtNight":"N","hasBell":"Y","male":2,"female":2,"type":"개방화장실"},{"id":"202437100000100604","nm":"울산광역시 동구보건소 화장실","lat":35.506382,"lng":129.4179668,"addr":"울산광역시 동구 봉수로 155","isOpenAtNight":"N","hasBell":"Y","male":9,"female":11,"type":"개방화장실"},{"id":"202437100000100598","nm":"동구장애인복지관 장애인주간보호센터","lat":35.532258,"lng":129.414175,"addr":"울산광역시 동구 방어진순환도로 1273-1","isOpenAtNight":"N","hasBell":"Y","male":1,"female":1,"type":"개방화장실"},{"id":"202437100000100590","nm":"울산동구종합사회복지관","lat":35.505669,"lng":129.417083,"addr":"울산광역시 동구 봉수로 155","isOpenAtNight":"N","hasBell":"N","male":6,"female":18,"type":"개방화장실"},{"id":"202437100000100610","nm":"소나타주유소 화장실","lat":35.5324367,"lng":129.411993,"addr":"울산광역시 동구 방어진순환도로 1280 (방어동)","isOpenAtNight":"N","hasBell":"N","male":1,"female":1,"type":"공중화장실"},{"id":"202437100000100618","nm":"갈빛동산교회","lat":35.502685,"lng":129.422002,"addr":"울산광역시 동구 대송 9길 70","isOpenAtNight":"N","hasBell":"N","male":2,"female":2,"type":"개방화장실"},{"id":"202437100000100578","nm":"화정동행정복지센터 화장실","lat":35.49595,"lng":129.4226,"addr":"울산광역시 동구 대송로 140","isOpenAtNight":"N","hasBell":"N","male":4,"female":8,"type":"개방화장실"},{"id":"202437100000100595","nm":"남목노인복지관","lat":35.537732,"lng":129.423248,"addr":"울산광역시 동구 안산들로 55","isOpenAtNight":"N","hasBell":"Y","male":3,"female":8,"type":"개방화장실"},{"id":"202437100000100627","nm":"방어진어촌계슬도활어직판장","lat":35.482505,"lng":129.431361,"addr":"울산광역시 동구 성끝길 66","isOpenAtNight":"N","hasBell":"N","male":2,"female":2,"type":"개방화장실"},{"id":"202437100000100593","nm":"동구노인복지관","lat":35.524636,"lng":129.431459,"addr":"울산광역시 동구 명덕6길 33","isOpenAtNight":"N","hasBell":"Y","male":2,"female":6,"type":"개방화장실"},{"id":"202437100000100678","nm":"남진항화장실","lat":35.482316,"lng":129.419268,"addr":"울산광역시 동구 방어동 852-6","isOpenAtNight":"N","hasBell":"Y","male":0,"female":2,"type":"공중화장실"},{"id":"202437100000100670","nm":"대왕암공원해안화장실","lat":35.492173,"lng":129.443949,"addr":"울산광역시 동구 등대로 156","isOpenAtNight":"N","hasBell":"Y","male":1,"female":2,"type":"공중화장실"},{"id":"202437100000100676","nm":"남목3동체육소공원화장실","lat":35.541801,"lng":129.433333,"addr":"울산광역시 동구 안산로 50-3","isOpenAtNight":"N","hasBell":"Y","male":1,"female":2,"type":"공중화장실"},{"id":"202437100000100645","nm":"방어진방파제화장실","lat":35.481096,"lng":129.423794,"addr":"울산광역시 동구 서진길 51","isOpenAtNight":"N","hasBell":"N","male":1,"female":1,"type":"공중화장실"},{"id":"202437100000100600","nm":"희망장애인보호작업장 화장실","lat":35.531585,"lng":129.41452,"addr":"울산광역시 동구 방어진순환도로 1273-2","isOpenAtNight":"N","hasBell":"Y","male":2,"female":4,"type":"개방화장실"},{"id":"202437100000100608","nm":"한마음주유소 화장실","lat":35.4885173,"lng":129.4143583,"addr":"울산광역시 동구 방어진순환도로 424 (방어동)","isOpenAtNight":"N","hasBell":"N","male":1,"female":2,"type":"공중화장실"},{"id":"202437100000100614","nm":"동울산주유소 화장실","lat":35.5089499,"lng":129.4298221,"addr":"울산광역시 동구 방어진순환도로 753 (방어동)","isOpenAtNight":"N","hasBell":"N","male":1,"female":2,"type":"공중화장실"},{"id":"202437100000100667","nm":"대왕암공원안쪽화장실","lat":35.492217,"lng":129.439802,"addr":"울산광역시 동구 등대로 140","isOpenAtNight":"N","hasBell":"Y","male":1,"female":4,"type":"공중화장실"},{"id":"202437100000100632","nm":"몽돌밭남쪽화장실","lat":35.564797,"lng":129.456267,"addr":"울산광역시 동구 주전해안길 5","isOpenAtNight":"N","hasBell":"Y","male":3,"female":5,"type":"공중화장실"},{"id":"202437100000100657","nm":"큰마을저수지공원화장실","lat":35.52929,"lng":129.427992,"addr":"울산광역시 동구 봉수로 523","isOpenAtNight":"N","hasBell":"Y","male":1,"female":2,"type":"공중화장실"},{"id":"202437100000100623","nm":"대송농수산물시장","lat":35.499232,"lng":129.420658,"addr":"울산광역시 동구 대송 8길 6","isOpenAtNight":"N","hasBell":"N","male":6,"female":7,"type":"개방화장실"},{"id":"202437100000100702","nm":"세계로마트㈜","lat":35.499858,"lng":129.420097,"addr":"울산광역시 동구 대송8길 17","isOpenAtNight":"N","hasBell":"N","male":2,"female":4,"type":"개방화장실"},{"id":"202437100000100693","nm":"주전넘에화장실","lat":35.55119,"lng":129.45448,"addr":"울산광역시 동구 주전동 737-4","isOpenAtNight":"N","hasBell":"N","male":1,"female":2,"type":"공중화장실"},{"id":"202437100000100585","nm":"울산남목도서관","lat":35.545342,"lng":129.42675,"addr":"울산광역시 동구 남목12길 10","isOpenAtNight":"N","hasBell":"N","male":6,"female":9,"type":"개방화장실"},{"id":"202437100000100658","nm":"바드래공원화장실","lat":35.516837,"lng":129.426986,"addr":"울산광역시 동구 바드래4길 92","isOpenAtNight":"N","hasBell":"Y","male":0,"female":1,"type":"공중화장실"},{"id":"202437100000100650","nm":"일산북쪽화장실","lat":35.497992,"lng":129.430803,"addr":"울산광역시 동구 일산진11길 31","isOpenAtNight":"N","hasBell":"Y","male":5,"female":8,"type":"공중화장실"},{"id":"202437100000100605","nm":"현대오일뱅크㈜ 직영 울산대교주유소 화장실","lat":35.5074884,"lng":129.4176386,"addr":"울산광역시 동구 봉수로 221 (화정동)","isOpenAtNight":"N","hasBell":"N","male":1,"female":2,"type":"공중화장실"},{"id":"202437100000100700","nm":"주전항화장실","lat":35.561389,"lng":129.456796,"addr":"울산광역시 동구 주전동 94-12","isOpenAtNight":"N","hasBell":"Y","male":5,"female":7,"type":"공중화장실"},{"id":"202437100000100668","nm":"㈜한마음마트","lat":35.486526,"lng":129.422509,"addr":"울산광역시 동구 북진 5길 6","isOpenAtNight":"N","hasBell":"N","male":2,"female":6,"type":"개방화장실"},{"id":"202437100000100660","nm":"방어진항화장실","lat":35.485265,"lng":129.42625,"addr":"울산광역시 동구 내진길 25-1","isOpenAtNight":"N","hasBell":"Y","male":1,"female":2,"type":"공중화장실"},{"id":"202437100000100636","nm":"꽃나루공원화장실","lat":35.488139,"lng":129.420108,"addr":"울산광역시 동구 월봉11길 116","isOpenAtNight":"N","hasBell":"Y","male":1,"female":2,"type":"공중화장실"},{"id":"202437100000100765","nm":"주전보밑항연안공원화장실","lat":35.5453,"lng":129.4527,"addr":"울산광역시 동구 주전동 산198-5","isOpenAtNight":"N","hasBell":"N","male":2,"female":5,"type":"공중화장실"},{"id":"202437100000100592","nm":"화정종합사회복지관","lat":35.4944682,"lng":129.4193784,"addr":"울산광역시 동구 월봉 10길 14","isOpenAtNight":"N","hasBell":"N","male":3,"female":3,"type":"개방화장실"},{"id":"202437100000100602","nm":"일산복개천공영주차장 화장실","lat":35.504487,"lng":129.427741,"addr":"울산광역시 동구 대송로 12","isOpenAtNight":"N","hasBell":"Y","male":0,"female":0,"type":"공중화장실"},{"id":"202437100000100606","nm":"GS칼텍스㈜ 직영 아카데미주유소 화장실","lat":35.4871967,"lng":129.4206684,"addr":"울산광역시 동구 방어진순환도로 486 (방어동)","isOpenAtNight":"N","hasBell":"N","male":0,"female":0,"type":"공중화장실"},{"id":"202437100000100674","nm":"화암추등대입구화장실","lat":35.477908,"lng":129.414647,"addr":"울산광역시 동구 화암등대길 4","isOpenAtNight":"N","hasBell":"Y","male":1,"female":3,"type":"공중화장실"},{"id":"202437100000100684","nm":"동뫼산공원화장실","lat":35.48827,"lng":129.427388,"addr":"울산광역시 동구 슬도로 15","isOpenAtNight":"N","hasBell":"Y","male":0,"female":1,"type":"공중화장실"},{"id":"202437100000100663","nm":"쇠평어린이공원B동화장실","lat":35.553135,"lng":129.434566,"addr":"울산광역시 동구 동해안로 287","isOpenAtNight":"N","hasBell":"Y","male":1,"female":3,"type":"공중화장실"},{"id":"202437100000100692","nm":"봉대산마성삼거리화장실","lat":35.54136,"lng":129.438545,"addr":"울산광역시 동구 동부동 산 195-4","isOpenAtNight":"N","hasBell":"N","male":1,"female":2,"type":"공중화장실"},{"id":"202437100000100666","nm":"자전거쉼터화장실","lat":35.54659,"lng":129.434856,"addr":"울산광역시 동구 동해안로 176","isOpenAtNight":"N","hasBell":"Y","male":0,"female":2,"type":"공중화장실"},{"id":"202437100000100625","nm":"동울산종합시장","lat":35.509026,"lng":129.425434,"addr":"울산광역시 동구 진성 14길 77","isOpenAtNight":"N","hasBell":"N","male":6,"female":6,"type":"개방화장실"},{"id":"202437100000100764","nm":"대왕별 아이누리 화장실","lat":35.4881,"lng":129.4379,"addr":"울산광역시 동구 등대로 100, 대왕별 아이누리","isOpenAtNight":"N","hasBell":"Y","male":3,"female":6,"type":"공중화장실"},{"id":"202437100000100574","nm":"울산광역시 동구청 본관동 화장실","lat":35.505083,"lng":129.416767,"addr":"울산광역시 동구 봉수로 155","isOpenAtNight":"N","hasBell":"Y","male":23,"female":24,"type":"개방화장실"},{"id":"202437100000100641","nm":"비석골화장실","lat":35.53833,"lng":129.41645,"addr":"울산광역시 동구 방어진순환도로 1204","isOpenAtNight":"N","hasBell":"Y","male":1,"female":3,"type":"공중화장실"},{"id":"202437100000100649","nm":"주전공원화장실","lat":35.552158,"lng":129.452343,"addr":"울산광역시 동구 주전고개로 188","isOpenAtNight":"N","hasBell":"Y","male":1,"female":2,"type":"공중화장실"},{"id":"202437100000100611","nm":"남목주유소 화장실","lat":35.5367936,"lng":129.4177566,"addr":"울산광역시 동구 방어진순환도로 1208 (방어동)","isOpenAtNight":"N","hasBell":"N","male":1,"female":1,"type":"공중화장실"},{"id":"202437100000100619","nm":"광림교회","lat":35.541395,"lng":129.423395,"addr":"울산광역시 동구 남목 5길 30","isOpenAtNight":"N","hasBell":"N","male":1,"female":2,"type":"개방화장실"},{"id":"202437100000100673","nm":"동부동공영주차장화장실","lat":35.547335,"lng":129.425105,"addr":"울산광역시 동구 옥류로 94","isOpenAtNight":"N","hasBell":"Y","male":0,"female":1,"type":"공중화장실"},{"id":"202437100000100654","nm":"슬도주차장화장실","lat":35.481135,"lng":129.432615,"addr":"울산광역시 동구 성끝길 105-1","isOpenAtNight":"N","hasBell":"Y","male":2,"female":5,"type":"공중화장실"},{"id":"202437100000100626","nm":"문현시장다동상가","lat":35.48406,"lng":129.417391,"addr":"울산광역시 동구 문재 3길 36","isOpenAtNight":"N","hasBell":"N","male":1,"female":1,"type":"개방화장실"},{"id":"202437100000100732","nm":"보성학교전시관","lat":35.50012,"lng":129.432229,"addr":"울산광역시 동구 일산진7길 8, 보성학교전시관 (일산동)","isOpenAtNight":"N","hasBell":"N","male":0,"female":1,"type":"개방화장실"},{"id":"202437100000100656","nm":"명덕수변공원화장실","lat":35.519185,"lng":129.426458,"addr":"울산광역시 동구 봉수로 381","isOpenAtNight":"N","hasBell":"Y","male":1,"female":4,"type":"공중화장실"},{"id":"202437100000100680","nm":"현대M마트","lat":35.506941,"lng":129.42944,"addr":"울산광역시 동구 방어진순환도로 733","isOpenAtNight":"N","hasBell":"N","male":3,"female":4,"type":"개방화장실"},{"id":"202437100000100688","nm":"염포산철탑삼거리화장실","lat":35.517115,"lng":129.406935,"addr":"울산광역시 동구 화정동 산 42-8","isOpenAtNight":"N","hasBell":"N","male":1,"female":1,"type":"공중화장실"},{"id":"202437100000100703","nm":"세계비전교회","lat":35.489941,"lng":129.426433,"addr":"울산광역시 동구 꽃바위로 380","isOpenAtNight":"N","hasBell":"N","male":2,"female":2,"type":"개방화장실"},{"id":"202437100000100719","nm":"동부소방서 화장실","lat":35.4826,"lng":129.4129,"addr":"울산광역시 동구 꽃바위 2가길 9","isOpenAtNight":"N","hasBell":"N","male":8,"female":3,"type":"개방화장실"},{"id":"202437100000100643","nm":"몽돌밭중앙화장실","lat":35.56805,"lng":129.453904,"addr":"울산광역시 동구 동해안로 696","isOpenAtNight":"N","hasBell":"Y","male":3,"female":5,"type":"공중화장실"},{"id":"202437100000100635","nm":"대송공원화장실","lat":35.500974,"lng":129.416089,"addr":"울산광역시 동구 봉수로 143","isOpenAtNight":"N","hasBell":"N","male":1,"female":1,"type":"공중화장실"},{"id":"202437100000100601","nm":"서부공영주차장 화장실","lat":35.527074,"lng":129.429185,"addr":"울산광역시 동구 서부로 40","isOpenAtNight":"N","hasBell":"Y","male":2,"female":3,"type":"공중화장실"},{"id":"202437100000100609","nm":"그린주유소 화장실","lat":35.4895057,"lng":129.4132839,"addr":"울산광역시 동구 방어진순환도로 410 (방어동)","isOpenAtNight":"N","hasBell":"N","male":1,"female":2,"type":"공중화장실"},{"id":"202437100000100665","nm":"대왕암공원입구화장실","lat":35.490201,"lng":129.434652,"addr":"울산광역시 동구 등대로 95","isOpenAtNight":"N","hasBell":"Y","male":4,"female":16,"type":"공중화장실"},{"id":"202437100000100581","nm":"전하2동주민센터 화장실","lat":35.50727,"lng":129.427288,"addr":"울산광역시 동구 진성4길45","isOpenAtNight":"N","hasBell":"N","male":8,"female":8,"type":"개방화장실"},{"id":"202437100000100589","nm":"사회적경제일자리센터","lat":35.522764,"lng":129.430449,"addr":"울산광역시 동구 명덕로 19","isOpenAtNight":"N","hasBell":"N","male":4,"female":12,"type":"개방화장실"},{"id":"202437100000100613","nm":"동주유소 화장실","lat":35.488462,"lng":129.4154187,"addr":"울산광역시 동구 방어진순환도로 431 (방어동)","isOpenAtNight":"N","hasBell":"N","male":1,"female":1,"type":"공중화장실"},{"id":"202437100000100584","nm":"남목3동행정복지센터","lat":35.5460456,"lng":129.4313865,"addr":"울산광역시 동구 동해안로 100","isOpenAtNight":"N","hasBell":"N","male":4,"female":4,"type":"개방화장실"},{"id":"202437100000100671","nm":"울산대교전망대화장실","lat":35.502682,"lng":129.410892,"addr":"울산광역시 동구 봉수로 155-1","isOpenAtNight":"N","hasBell":"Y","male":3,"female":5,"type":"공중화장실"},{"id":"202437100000100679","nm":"대왕암공원미로원화장실","lat":35.487464,"lng":129.438283,"addr":"울산광역시 동구 등대로 80-22","isOpenAtNight":"N","hasBell":"Y","male":1,"female":3,"type":"공중화장실"},{"id":"202437100000100687","nm":"염포산팔각정화장실","lat":35.519991,"lng":129.409973,"addr":"울산광역시 동구 화정동 산 42-2","isOpenAtNight":"N","hasBell":"N","male":1,"female":1,"type":"공중화장실"},{"id":"202437100000100699","nm":"화암항화장실","lat":35.479887,"lng":129.415211,"addr":"울산광역시 동구 방어동 858-2","isOpenAtNight":"N","hasBell":"Y","male":1,"female":2,"type":"공중화장실"},{"id":"202437100000100691","nm":"주전큰골어린이공원화장실","lat":35.551296,"lng":129.450036,"addr":"울산광역시 동구 주전동 637","isOpenAtNight":"N","hasBell":"Y","male":1,"female":2,"type":"공중화장실"},{"id":"202437100000100594","nm":"동구노인복지관전하분관","lat":35.510629,"lng":129.427492,"addr":"울산광역시 동구 진성12길 120","isOpenAtNight":"N","hasBell":"Y","male":3,"female":8,"type":"개방화장실"},{"id":"202437100000100685","nm":"대왕암공원캠핑장화장실","lat":35.488274,"lng":129.439167,"addr":"울산광역시 동구 등대로 80-61","isOpenAtNight":"N","hasBell":"Y","male":4,"female":8,"type":"공중화장실"},{"id":"202437100000100587","nm":"꽃바위문화관 화장실","lat":35.4870523,"lng":129.4113238,"addr":"울산광역시 동구 문현3길 6","isOpenAtNight":"N","hasBell":"N","male":3,"female":15,"type":"개방화장실"},{"id":"202437100000100597","nm":"울산광역시동구장애인복지관 화장실","lat":35.532258,"lng":129.414175,"addr":"울산광역시 동구 방어진순환도로 1273-1","isOpenAtNight":"N","hasBell":"Y","male":4,"female":10,"type":"개방화장실"},{"id":"202437100000100646","nm":"주전군부대화장실","lat":35.551912,"lng":129.455008,"addr":"울산광역시 동구 주전해안길 296","isOpenAtNight":"N","hasBell":"Y","male":1,"female":2,"type":"공중화장실"},{"id":"202437100000100624","nm":"동부시장","lat":35.542744,"lng":129.428222,"addr":"울산광역시 동구 남목17길 16","isOpenAtNight":"N","hasBell":"N","male":3,"female":3,"type":"개방화장실"},{"id":"202437100000100576","nm":"방어동행정복지센터 화장실","lat":35.48621112,"lng":129.4238855,"addr":"울산광역시 동구 꽃바위로325","isOpenAtNight":"N","hasBell":"N","male":3,"female":6,"type":"개방화장실"},{"id":"202437100000100682","nm":"한마음체육공원화장실","lat":35.518171,"lng":129.419892,"addr":"울산광역시 동구 전하동 산 162-1","isOpenAtNight":"N","hasBell":"Y","male":1,"female":2,"type":"공중화장실"},{"id":"202437100000100659","nm":"후릉공원화장실","lat":35.486699,"lng":129.410777,"addr":"울산광역시 동구 문현2길 30","isOpenAtNight":"N","hasBell":"Y","male":0,"female":1,"type":"공중화장실"},{"id":"202437100000100651","nm":"마골산화장실","lat":35.561773,"lng":129.419691,"addr":"울산광역시 동구 서부동 산 100","isOpenAtNight":"N","hasBell":"N","male":1,"female":1,"type":"공중화장실"},{"id":"202437100000100637","nm":"쇠평경로당","lat":35.552818,"lng":129.431543,"addr":"울산광역시 동구 쇠평길 120","isOpenAtNight":"N","hasBell":"N","male":1,"female":1,"type":"개방화장실"},{"id":"202437100000100615","nm":"SK행복충전 동구LPG충전소 화장실","lat":35.4908615,"lng":129.4174348,"addr":"울산광역시 동구 봉수로 36 (방어동)","isOpenAtNight":"N","hasBell":"N","male":1,"female":1,"type":"공중화장실"},{"id":"202437100000100583","nm":"남목2동주민센터","lat":35.5246015,"lng":129.4314542,"addr":"울산광역시 동구 명덕6길 33","isOpenAtNight":"N","hasBell":"Y","male":4,"female":7,"type":"개방화장실"},{"id":"202437100000100686","nm":"촛등공원화장실","lat":35.476969,"lng":129.411981,"addr":"울산광역시 동구 화암10길 17","isOpenAtNight":"N","hasBell":"Y","male":0,"female":1,"type":"공중화장실"},{"id":"202437100000100647","nm":"월봉시장","lat":35.495003,"lng":129.424854,"addr":"울산광역시 동구 화정 6길 16","isOpenAtNight":"N","hasBell":"N","male":2,"female":3,"type":"개방화장실"},{"id":"202437100000100633","nm":"몽돌밭북쪽화장실","lat":35.571648,"lng":129.452283,"addr":"울산광역시 동구 동해안로 738","isOpenAtNight":"N","hasBell":"Y","male":3,"female":4,"type":"공중화장실"},{"id":"202437100000100628","nm":"히딩크드림필드화장실","lat":35.511239,"lng":129.421671,"addr":"울산광역시 동구 봉수로 279","isOpenAtNight":"N","hasBell":"Y","male":2,"female":1,"type":"공중화장실"},{"id":"202437100000100620","nm":"광명교회","lat":35.506933,"lng":129.427609,"addr":"울산광역시 동구 진성11길 50","isOpenAtNight":"N","hasBell":"N","male":3,"female":5,"type":"개방화장실"},{"id":"202437100000100579","nm":"대송동주민센터 화장실","lat":35.503151,"lng":129.4183717,"addr":"울산광역시 동구 대송5길 10","isOpenAtNight":"N","hasBell":"N","male":4,"female":7,"type":"개방화장실"},{"id":"202437100000100652","nm":"주전 활어회직판장","lat":35.561119,"lng":129.456888,"addr":"울산광역시 동구 주전해안길 75","isOpenAtNight":"N","hasBell":"N","male":2,"female":2,"type":"개방화장실"},{"id":"202437100000100612","nm":"현대오일뱅크㈜ 직영 울산현대주유소 화장실","lat":35.5325434,"lng":129.4322916,"addr":"울산광역시 동구 방어진순환도로 1025 (방어동)","isOpenAtNight":"N","hasBell":"N","male":2,"female":1,"type":"공중화장실"},{"id":"202437100000100661","nm":"일산중앙화장실","lat":35.495386,"lng":129.430633,"addr":"울산광역시 동구 해수욕장10길 21","isOpenAtNight":"N","hasBell":"Y","male":3,"female":5,"type":"공중화장실"},{"id":"202437100000100669","nm":"평강교회","lat":35.50657,"lng":129.424493,"addr":"울산광역시 동구 진성 6길 75","isOpenAtNight":"N","hasBell":"N","male":3,"female":10,"type":"개방화장실"},{"id":"202437100000100677","nm":"해동중화요리","lat":35.501007,"lng":129.43902,"addr":"울산광역시 동구 고늘로 80-30","isOpenAtNight":"N","hasBell":"N","male":1,"female":1,"type":"개방화장실"},{"id":"202437100000100695","nm":"산시공원화장실","lat":35.505543,"lng":129.426897,"addr":"울산광역시 동구 전하동 688-4","isOpenAtNight":"N","hasBell":"Y","male":0,"female":1,"type":"공중화장실"},{"id":"202437100000100766","nm":"너나들이쉼터화장실","lat":35.5445,"lng":129.4332,"addr":"울산광역시 동구 동부동 592-18","isOpenAtNight":"N","hasBell":"N","male":1,"female":2,"type":"공중화장실"},{"id":"202437100000100675","nm":"주전어촌계화장실","lat":35.558493,"lng":129.457931,"addr":"울산광역시 동구 주전해안길 137","isOpenAtNight":"N","hasBell":"Y","male":1,"female":2,"type":"공중화장실"},{"id":"202437100000100662","nm":"감나무골공원화장실","lat":35.54702,"lng":129.423785,"addr":"울산광역시 동구 옥류로 91","isOpenAtNight":"N","hasBell":"Y","male":0,"female":1,"type":"공중화장실"},{"id":"202437100000100681","nm":"대왕암공원타워주차장화장실","lat":35.491186,"lng":129.433862,"addr":"울산광역시 동구 해수욕장10길 101","isOpenAtNight":"N","hasBell":"Y","male":3,"female":6,"type":"공중화장실"},{"id":"202437100000100689","nm":"울산대교전망대주차장화장실","lat":35.504787,"lng":129.41404,"addr":"울산광역시 동구 화정동 산 43","isOpenAtNight":"N","hasBell":"N","male":1,"female":1,"type":"공중화장실"},{"id":"202437100000100701","nm":"화암추다목적복합공간 화장실","lat":35.478599,"lng":129.414446,"addr":"울산광역시 동구 방어동 554-2번지선","isOpenAtNight":"N","hasBell":"Y","male":1,"female":3,"type":"공중화장실"},{"id":"202437100000100634","nm":"소명교회","lat":35.543354,"lng":129.429201,"addr":"울산광역시 동구 동부동 330","isOpenAtNight":"N","hasBell":"N","male":3,"female":5,"type":"개방화장실"}]}