{"items":[{"id":"202435800000100379","nm":"큰말 해수욕장 공중화장실","lat":37.2527841,"lng":126.306903,"addr":"인천광역시 옹진군 자월면 자월서로101번길 136","isOpenAtNight":"N","hasBell":"Y","male":3,"female":5,"type":"공중화장실"},{"id":"202435800000100201","nm":"대청파출소(해경)","lat":37.4933,"lng":124.4255,"addr":"인천광역시 옹진군 대청면 대청로 22-1","isOpenAtNight":"N","hasBell":"N","male":1,"female":0,"type":"개방화장실"},{"id":"202435800000100344","nm":"영흥면사무소","lat":37.2559865,"lng":126.4837862,"addr":"인천광역시 옹진군 영흥면 내리 202-3","isOpenAtNight":"N","hasBell":"N","male":2,"female":4,"type":"개방화장실"},{"id":"202435800000100351","nm":"장경리 동측 공중화장실","lat":37.2780006,"lng":126.4543555,"addr":"인천광역시 옹진군 영흥면 영흥서로496번길 20","isOpenAtNight":"N","hasBell":"Y","male":2,"female":4,"type":"공중화장실"},{"id":"202435800000100235","nm":"서포2리 저수지 물량장 공중화장실","lat":37.2301415,"lng":126.0946672,"addr":"인천광역시 옹진군 덕적면 덕적남로771번길 289","isOpenAtNight":"N","hasBell":"Y","male":1,"female":3,"type":"공중화장실"},{"id":"202435800000100259","nm":"중화동 공중화장실","lat":37.92467,"lng":124.656,"addr":"인천광역시 옹진군 백령면 중화2길 3","isOpenAtNight":"N","hasBell":"N","male":2,"female":4,"type":"공중화장실"},{"id":"202435800000100240","nm":"서포리 물량장 공중화장실","lat":37.2231234,"lng":126.1094554,"addr":"인천광역시 옹진군 덕적면 덕적남로587번길 108","isOpenAtNight":"N","hasBell":"N","male":1,"female":2,"type":"공중화장실"},{"id":"202435800000100362","nm":"장경리 공원화장실","lat":37.2722905,"lng":126.4499287,"addr":"인천광역시 옹진군 영흥면","isOpenAtNight":"N","hasBell":"Y","male":1,"female":3,"type":"공중화장실"},{"id":"202435800000100209","nm":"구대합실공중화장실","lat":37.4928,"lng":142.4259,"addr":"인천광역시 옹진군 대청면 대청남로 5","isOpenAtNight":"N","hasBell":"Y","male":2,"female":2,"type":"공중화장실"},{"id":"202435800000100325","nm":"등대공원","lat":37.654646,"lng":125.685592,"addr":"인천광역시 옹진군 연평면 연평로682번길 75-5","isOpenAtNight":"N","hasBell":"N","male":2,"female":3,"type":"공중화장실"},{"id":"202435800000100352","nm":"십리포 서쪽 공중화장실","lat":37.2809005,"lng":126.4832419,"addr":"인천광역시 옹진군 영흥면 영흥북로420-26","isOpenAtNight":"N","hasBell":"N","male":1,"female":3,"type":"공중화장실"},{"id":"202435800000100315","nm":"연평해양경찰서","lat":37.661805,"lng":125.705985,"addr":"인천광역시 옹진군 연평면 소연평로 14","isOpenAtNight":"N","hasBell":"N","male":0,"female":2,"type":"개방화장실"},{"id":"202435800000100211","nm":"답동해변공중화장실","lat":37.4959,"lng":124.425,"addr":"인천광역시 옹진군 대청면 대청로 80","isOpenAtNight":"N","hasBell":"N","male":2,"female":2,"type":"공중화장실"},{"id":"202435800000100369","nm":"주랑죽 소공원 공중화장실","lat":37.1688866,"lng":126.3135571,"addr":"인천광역시 옹진군 자월면 승봉로113번길 296","isOpenAtNight":"N","hasBell":"N","male":1,"female":1,"type":"공중화장실"},{"id":"202435800000100385","nm":"승봉치안센터","lat":37.1693553,"lng":126.293932,"addr":"인천광역시 옹진군 자월면 승봉로 45-15","isOpenAtNight":"N","hasBell":"N","male":0,"female":1,"type":"개방화장실"},{"id":"202435800000100215","nm":"대청농협","lat":37.5001,"lng":124.4216,"addr":"인천광역시 옹진군 대청면 대청로 213","isOpenAtNight":"N","hasBell":"N","male":2,"female":2,"type":"개방화장실"},{"id":"202435800000100210","nm":"광난두동정자각공중화장실","lat":37.483,"lng":124.411,"addr":"인천광역시 옹진군 대청면 대청남로 403","isOpenAtNight":"N","hasBell":"Y","male":1,"female":2,"type":"공중화장실"},{"id":"202435800000100204","nm":"대청면사무소","lat":37.4931,"lng":124.4244,"addr":"인천광역시 옹진군 대청면 대청로19번길 59","isOpenAtNight":"N","hasBell":"N","male":4,"female":5,"type":"개방화장실"},{"id":"202435800000100280","nm":"서포보건진료소 화장실","lat":37.2244828,"lng":126.1152625,"addr":"인천광역시 옹진군 덕적면 덕적남로625번길 9","isOpenAtNight":"N","hasBell":"N","male":1,"female":1,"type":"개방화장실"},{"id":"202435800000100348","nm":"국사봉 통일사 공중화장실","lat":37.2708125,"lng":126.4615191,"addr":"인천광역시 옹진군 영흥면 영흥로722번길 146","isOpenAtNight":"N","hasBell":"N","male":1,"female":2,"type":"공중화장실"},{"id":"202435800000100354","nm":"십리포 주차장 공중화장실","lat":37.2814729,"lng":126.4863881,"addr":"인천광역시 옹진군 영흥면 영흥북로382","isOpenAtNight":"N","hasBell":"Y","male":5,"female":13,"type":"공중화장실"},{"id":"202435800000100337","nm":"소연평 행정복지센터","lat":37.610089,"lng":125.711826,"addr":"인천광역시 옹진군 연평면 소연평로 19번길 28","isOpenAtNight":"N","hasBell":"N","male":2,"female":0,"type":"개방화장실"},{"id":"202435800000100226","nm":"굴업도 해수욕장 공중화장실","lat":37.1888047,"lng":125.9769198,"addr":"인천광역시 옹진군 덕적면 굴업로 139 (인근)","isOpenAtNight":"N","hasBell":"Y","male":2,"female":3,"type":"공중화장실"},{"id":"202435800000100197","nm":"소청출장소(해경)","lat":37.4614,"lng":124.4506,"addr":"인천광역시 옹진군 대청면 소청동로 88-44","isOpenAtNight":"N","hasBell":"N","male":0,"female":1,"type":"개방화장실"},{"id":"202435800000100214","nm":"대청면농업인상담소","lat":37.5,"lng":124.4158,"addr":"인천광역시 옹진군 대청면 대청로244번길 37","isOpenAtNight":"N","hasBell":"N","male":1,"female":0,"type":"개방화장실"},{"id":"202435800000100255","nm":"백령도서관","lat":37.9702967,"lng":124.722708,"addr":"인천광역시 옹진군 백령면 백령로 260","isOpenAtNight":"N","hasBell":"N","male":4,"female":5,"type":"개방화장실"},{"id":"202435800000100339","nm":"영흥해경파출소","lat":37.2547999,"lng":126.4982214,"addr":"인천광역시 옹진군 영흥면 내리 8-224","isOpenAtNight":"N","hasBell":"N","male":0,"female":1,"type":"개방화장실"},{"id":"202435800000100295","nm":"건어장","lat":37.541676,"lng":126.329371,"addr":"인천광역시 옹진군 북도면 장봉로605번길 145","isOpenAtNight":"N","hasBell":"N","male":1,"female":2,"type":"공중화장실"},{"id":"202435800000100370","nm":"승봉리 선착장 공중화장실","lat":37.1902663,"lng":126.1707588,"addr":"인천광역시 옹진군 자월면 승봉로 19","isOpenAtNight":"N","hasBell":"Y","male":1,"female":3,"type":"공중화장실"},{"id":"202435800000100287","nm":"소연평보건진료소","lat":37.6101008,"lng":125.7118182,"addr":"인천광역시 옹진군 연평면 소연평로19번길 28","isOpenAtNight":"N","hasBell":"N","male":1,"female":1,"type":"개방화장실"},{"id":"202435800000100313","nm":"장봉출장소","lat":37.5343095,"lng":126.3378029,"addr":"인천광역시 옹진군 북도면 장봉로 554","isOpenAtNight":"N","hasBell":"N","male":2,"female":2,"type":"개방화장실"},{"id":"202435800000100232","nm":"능동 자갈마당 공중화장실","lat":37.2639526,"lng":126.1028856,"addr":"인천광역시 옹진군 덕적면 덕적북로 725 (인근)","isOpenAtNight":"N","hasBell":"Y","male":2,"female":3,"type":"공중화장실"},{"id":"202435800000100303","nm":"장봉매표소","lat":37.5308413,"lng":126.384507,"addr":"인천광역시 옹진군 북도면 장봉로 77","isOpenAtNight":"N","hasBell":"N","male":2,"female":2,"type":"공중화장실"},{"id":"202435800000100267","nm":"중화동 교회 공중화장실(주차장)","lat":37.92817,"lng":124.651,"addr":"인천광역시 옹진군 백령면 중화2길 147","isOpenAtNight":"N","hasBell":"N","male":2,"female":3,"type":"공중화장실"},{"id":"202435800000100343","nm":"영흥면 공공도서관","lat":37.2559865,"lng":126.4837862,"addr":"인천광역시 옹진군 영흥면 영흥로 283-31","isOpenAtNight":"N","hasBell":"N","male":2,"female":2,"type":"개방화장실"},{"id":"202435800000100317","nm":"연평우체국","lat":37.659925,"lng":125.69963,"addr":"인천광역시 옹진군 연평면 연평로137번길 13","isOpenAtNight":"N","hasBell":"N","male":0,"female":1,"type":"개방화장실"},{"id":"202435800000100391","nm":"목섬 공중화장실","lat":37.257308,"lng":126.329321,"addr":"인천광역시 옹진군 자월면 자월동로 179","isOpenAtNight":"N","hasBell":"N","male":1,"female":1,"type":"공중화장실"},{"id":"202435800000100345","nm":"내7리 소공원 공중화장실","lat":37.2661549,"lng":126.4961762,"addr":"인천광역시 옹진군 영흥면 영흥북로 173","isOpenAtNight":"N","hasBell":"N","male":1,"female":4,"type":"공중화장실"},{"id":"202435800000100293","nm":"이작보건진료소 화장실","lat":37.1757148,"lng":126.2531767,"addr":"인천광역시 옹진군 자월면 대이작로70번안길 25-5","isOpenAtNight":"N","hasBell":"N","male":1,"female":1,"type":"개방화장실"},{"id":"202435800000100367","nm":"용담리 공중화장실","lat":37.2450462,"lng":126.4800698,"addr":"인천광역시 옹진군 영흥면","isOpenAtNight":"N","hasBell":"N","male":2,"female":4,"type":"공중화장실"},{"id":"202435800000100353","nm":"십리포 동쪽 공중화장실","lat":37.2818015,"lng":126.4860655,"addr":"인천광역시 옹진군 영흥면 영흥북로 388","isOpenAtNight":"N","hasBell":"Y","male":1,"female":3,"type":"공중화장실"},{"id":"202435800000100269","nm":"고봉포 공중화장실","lat":37.98214,"lng":124.6986,"addr":"인천광역시 옹진군 백령면 백령로 380","isOpenAtNight":"N","hasBell":"N","male":1,"female":2,"type":"공중화장실"},{"id":"202435800000100238","nm":"서포리 복지민박 앞 공중화장실","lat":37.2236586,"lng":126.1151635,"addr":"인천광역시 옹진군 덕적면 덕적남로625번길 31","isOpenAtNight":"N","hasBell":"Y","male":5,"female":5,"type":"공중화장실"},{"id":"202435800000100264","nm":"용기포 선착장 공중화장실","lat":37.9518,"lng":124.7341,"addr":"인천광역시 옹진군 백령면 백령로 8","isOpenAtNight":"N","hasBell":"N","male":5,"female":7,"type":"공중화장실"},{"id":"202435800000100320","nm":"소연평 마을안쪽","lat":37.610599,"lng":125.713938,"addr":"인천광역시 옹진군 연평면 소연평로19번길 21-2","isOpenAtNight":"N","hasBell":"N","male":1,"female":2,"type":"공중화장실"},{"id":"202435800000100306","nm":"모도","lat":37.5352745,"lng":126.4126103,"addr":"인천광역시 옹진군 북도면 모도로 54","isOpenAtNight":"N","hasBell":"Y","male":3,"female":6,"type":"공중화장실"},{"id":"202435800000100251","nm":"문갑도 한월리해변 공중화장실","lat":37.1783938,"lng":126.1087408,"addr":"인천광역시 옹진군 덕적면 문갑로 128","isOpenAtNight":"N","hasBell":"Y","male":2,"female":2,"type":"공중화장실"},{"id":"202435800000100382","nm":"자월면사무소","lat":37.2543397,"lng":126.3073947,"addr":"인천광역시 옹진군 자월면 자월서로 164","isOpenAtNight":"N","hasBell":"N","male":2,"female":2,"type":"개방화장실"},{"id":"202435800000100333","nm":"연평119지역대","lat":37.658988,"lng":125.698133,"addr":"인천광역시 옹진군 연평면 연평로821번길 9-8","isOpenAtNight":"N","hasBell":"N","male":0,"female":1,"type":"개방화장실"},{"id":"202435800000100365","nm":"선재 체험어장 공중화장실","lat":37.2583493,"lng":126.5209809,"addr":"인천광역시 옹진군 영흥면","isOpenAtNight":"N","hasBell":"N","male":1,"female":2,"type":"공중화장실"},{"id":"202435800000100289","nm":"선재보건진료소 화장실","lat":37.2423162,"lng":126.5295081,"addr":"인천광역시 옹진군 선재로 150-9","isOpenAtNight":"N","hasBell":"N","male":1,"female":1,"type":"개방화장실"},{"id":"202435800000100224","nm":"백아도 마을 공중화장실","lat":37.076228,"lng":125.9435684,"addr":"인천광역시 옹진군 덕적면 백아로 345","isOpenAtNight":"N","hasBell":"Y","male":2,"female":3,"type":"공중화장실"},{"id":"202435800000100205","nm":"옥죽쉼터 공중화장실","lat":37.5042,"lng":124.4228,"addr":"인천광역시 옹진군 대청면 대청북로 116","isOpenAtNight":"N","hasBell":"Y","male":2,"female":3,"type":"공중화장실"},{"id":"202435800000100219","nm":"소청마을 공중화장실","lat":37.4614,"lng":124.4506,"addr":"인천광역시 옹진군 대청면 소청동로 88-30","isOpenAtNight":"N","hasBell":"Y","male":1,"female":3,"type":"공중화장실"},{"id":"202435800000100297","nm":"장봉2리","lat":37.5306044,"lng":126.3380159,"addr":"인천광역시 옹진군 북도면 장봉로519번길 33-2","isOpenAtNight":"N","hasBell":"N","male":2,"female":2,"type":"공중화장실"},{"id":"202435800000100355","nm":"버스터미널 공중화장실","lat":37.258931,"lng":126.4936937,"addr":"인천광역시 옹진군 영흥면 영흥로176번길 26","isOpenAtNight":"N","hasBell":"N","male":2,"female":4,"type":"공중화장실"},{"id":"202435800000100324","nm":"가래칠기","lat":37.656703,"lng":125.684949,"addr":"인천광역시 옹진군 연평면 연평로682번길 75-5","isOpenAtNight":"N","hasBell":"N","male":2,"female":2,"type":"공중화장실"},{"id":"202435800000100246","nm":"대부매표소앞공중화장실","lat":37.2259287,"lng":126.146794,"addr":"인천광역시 옹진군 덕적면 덕적북로 8-6","isOpenAtNight":"N","hasBell":"Y","male":1,"female":3,"type":"공중화장실"},{"id":"202435800000100311","nm":"신시도연도교","lat":37.5387453,"lng":126.3432437,"addr":"인천광역시 옹진군 북도면","isOpenAtNight":"N","hasBell":"N","male":1,"female":2,"type":"공중화장실"},{"id":"202435800000100388","nm":"이일레 해수욕장 공중화장실","lat":37.1650533,"lng":126.302895,"addr":"인천광역시 옹진군 자월면 승봉로 116","isOpenAtNight":"N","hasBell":"N","male":2,"female":2,"type":"공중화장실"},{"id":"202435800000100359","nm":"뱃말 공중화장실","lat":37.2352605,"lng":126.5377058,"addr":"인천광역시 옹진군 영흥면 선재로34번길 104","isOpenAtNight":"N","hasBell":"N","male":2,"female":5,"type":"공중화장실"},{"id":"202435800000100277","nm":"소야보건진료소 화장실","lat":37.2130856,"lng":126.1806204,"addr":"인천광역시 옹진군 덕적면 소야로 257-1","isOpenAtNight":"N","hasBell":"N","male":1,"female":1,"type":"개방화장실"},{"id":"202435800000100304","nm":"장봉바다역","lat":37.5311081,"lng":126.3846674,"addr":"인천광역시 옹진군 북도면 장봉로 75","isOpenAtNight":"N","hasBell":"Y","male":1,"female":3,"type":"공중화장실"},{"id":"202435800000100276","nm":"대청보건지소 화장실","lat":37.82378,"lng":124.71552,"addr":"인천광역시 옹진군 대청면 대청로 3","isOpenAtNight":"N","hasBell":"N","male":1,"female":2,"type":"개방화장실"},{"id":"202435800000100230","nm":"소야리 떼뿌루 캠핑장 공중화장실","lat":37.2126963,"lng":126.1763031,"addr":"인천광역시 옹진군 덕적면 소야로202번길 83 (인근)","isOpenAtNight":"N","hasBell":"Y","male":3,"female":6,"type":"공중화장실"},{"id":"202435800000100274","nm":"콩돌포구(오군포) 공중화장실","lat":37.92327,"lng":124.6984,"addr":"인천광역시 옹진군 백령면 백령남로 563","isOpenAtNight":"N","hasBell":"N","male":2,"female":3,"type":"공중화장실"},{"id":"202435800000100386","nm":"소이작치안센터","lat":37.1815025,"lng":126.238624,"addr":"인천광역시 옹진군 자월면 소이작로 44","isOpenAtNight":"N","hasBell":"N","male":1,"female":1,"type":"개방화장실"},{"id":"202435800000100217","nm":"농여 공중화장실","lat":37.5032,"lng":124.4212,"addr":"인천광역시 옹진군 대청면","isOpenAtNight":"N","hasBell":"Y","male":1,"female":3,"type":"공중화장실"},{"id":"202435800000100213","nm":"모래울화장실","lat":37.4851,"lng":124.4105,"addr":"인천광역시 옹진군 대청면 대청남로 519","isOpenAtNight":"N","hasBell":"N","male":2,"female":2,"type":"공중화장실"},{"id":"202435800000100309","nm":"시도리운동장","lat":37.5337697,"lng":126.4309739,"addr":"인천광역시 옹진군 북도면 시도로86번길 78","isOpenAtNight":"N","hasBell":"N","male":3,"female":6,"type":"공중화장실"},{"id":"202435800000100387","nm":"대이작치안센터","lat":37.1769253,"lng":126.2533816,"addr":"인천광역시 옹진군 자월면 대이작로 72","isOpenAtNight":"N","hasBell":"N","male":0,"female":1,"type":"개방화장실"},{"id":"202435800000100301","nm":"옹암해변주차장","lat":37.5298772,"lng":126.3727892,"addr":"인천광역시 옹진군 북도면 장봉로 185","isOpenAtNight":"N","hasBell":"Y","male":2,"female":3,"type":"공중화장실"},{"id":"202435800000100357","nm":"진두 선착장 공중화장실","lat":37.2555792,"lng":126.4986698,"addr":"인천광역시 옹진군 영흥면 영흥로 108","isOpenAtNight":"N","hasBell":"N","male":2,"female":8,"type":"공중화장실"},{"id":"202435800000100220","nm":"119화장실","lat":37.2265636,"lng":126.1457842,"addr":"인천광역시 옹진군 덕적면 덕적북로 113","isOpenAtNight":"N","hasBell":"N","male":2,"female":3,"type":"개방화장실"},{"id":"202435800000100316","nm":"연평파출소","lat":37.661321,"lng":125.701734,"addr":"인천광역시 옹진군 연평면 연평로 152","isOpenAtNight":"N","hasBell":"N","male":0,"female":1,"type":"개방화장실"},{"id":"202435800000100228","nm":"문갑도 선착장 공중화장실","lat":37.1706313,"lng":126.1116849,"addr":"인천광역시 옹진군 덕적면 문갑로 9 (인근)","isOpenAtNight":"N","hasBell":"N","male":2,"female":3,"type":"공중화장실"},{"id":"202435800000100318","nm":"당섬선착장 공중화장실","lat":37.654184,"lng":125.71139,"addr":"인천광역시 옹진군 연평면 연평로 15","isOpenAtNight":"N","hasBell":"N","male":2,"female":4,"type":"공중화장실"},{"id":"202435800000100207","nm":"옥죽동 공중화장실","lat":37.5036,"lng":124.425,"addr":"인천광역시 옹진군 대청면 대청북로 96","isOpenAtNight":"N","hasBell":"N","male":1,"female":3,"type":"공중화장실"},{"id":"202435800000100328","nm":"구리동","lat":37.668845,"lng":125.684974,"addr":"인천광역시 옹진군 연평면 연평리 900-3","isOpenAtNight":"N","hasBell":"N","male":4,"female":4,"type":"공중화장실"},{"id":"202435800000100350","nm":"장경리2주차장공중화장실(서측)","lat":37.2714151,"lng":126.4485099,"addr":"인천광역시 옹진군 영흥면 영흥로757번길 44","isOpenAtNight":"N","hasBell":"Y","male":2,"female":4,"type":"공중화장실"},{"id":"202435800000100300","nm":"옹암해수욕장","lat":37.5304331,"lng":126.3707408,"addr":"인천광역시 옹진군 북도면 장봉로 205","isOpenAtNight":"N","hasBell":"Y","male":6,"female":6,"type":"공중화장실"},{"id":"202435800000100338","nm":"남부지구지소","lat":37.2531439,"lng":126.4602904,"addr":"인천광역시 옹진군 영흥면 영흥남로435번길 29","isOpenAtNight":"N","hasBell":"N","male":0,"female":1,"type":"개방화장실"},{"id":"202435800000100296","nm":"진촌해수욕장","lat":37.5503027,"lng":126.3352017,"addr":"인천광역시 옹진군 북도면 장봉로 740-70","isOpenAtNight":"N","hasBell":"Y","male":2,"female":2,"type":"공중화장실"},{"id":"202435800000100223","nm":"덕적면사무소","lat":37.2277308,"lng":126.1452144,"addr":"인천광역시 옹진군 덕적면 덕적북로130 덕적면사무소","isOpenAtNight":"N","hasBell":"N","male":3,"female":4,"type":"개방화장실"},{"id":"202435800000100330","nm":"백로서식지","lat":37.674765,"lng":125.685066,"addr":"인천광역시 옹진군 연평면 연평리 산10-1","isOpenAtNight":"N","hasBell":"N","male":1,"female":2,"type":"공중화장실"},{"id":"202435800000100252","nm":"서부지구지소","lat":37.9702522,"lng":124.7223496,"addr":"인천광역시 옹진군 백령면 백령로 262","isOpenAtNight":"N","hasBell":"N","male":0,"female":1,"type":"개방화장실"},{"id":"202435800000100389","nm":"작은풀안 공중화장실","lat":37.1718359,"lng":126.2580062,"addr":"인천광역시 옹진군 자월면 대이작로 160","isOpenAtNight":"N","hasBell":"Y","male":3,"female":4,"type":"공중화장실"},{"id":"202435800000100340","nm":"선재 물량장 공중화장실","lat":37.2327667,"lng":126.5370537,"addr":"인천광역시 옹진군 영흥면 선재로 5","isOpenAtNight":"N","hasBell":"N","male":1,"female":3,"type":"공중화장실"},{"id":"202435800000100319","nm":"연평종합회관","lat":37.661344,"lng":125.702845,"addr":"인천광역시 옹진군 연평면 연평로 184","isOpenAtNight":"N","hasBell":"N","male":1,"female":2,"type":"개방화장실"},{"id":"202435800000100347","nm":"노가리 공중화장실","lat":37.2403908,"lng":126.4721211,"addr":"인천광역시 옹진군 영흥면 영흥남로9번길 394","isOpenAtNight":"N","hasBell":"N","male":2,"female":4,"type":"공중화장실"},{"id":"202435800000100208","nm":"물량장공중화장실","lat":37.4938,"lng":124.425,"addr":"인천광역시 옹진군 대청면 대청로 46","isOpenAtNight":"N","hasBell":"Y","male":2,"female":2,"type":"공중화장실"},{"id":"202435800000100378","nm":"사슴개(자월3리) 공중화장실","lat":37.2566967,"lng":126.2919646,"addr":"인천광역시 옹진군 자월면 자월서로343번길 42","isOpenAtNight":"N","hasBell":"N","male":1,"female":1,"type":"공중화장실"},{"id":"202435800000100283","nm":"백령보건지소 화장실","lat":37.95797,"lng":124.66468,"addr":"인천광역시 옹진군 백령면 백령로833번길 26-29","isOpenAtNight":"N","hasBell":"N","male":2,"female":2,"type":"개방화장실"},{"id":"202435800000100265","nm":"끝섬 전망대 공중화장실","lat":37.9596355,"lng":124.7461439,"addr":"인천광역시 옹진군 백령면 백령로 114-379","isOpenAtNight":"N","hasBell":"N","male":1,"female":3,"type":"공중화장실"},{"id":"202435800000100288","nm":"영흥보건지소 화장실","lat":37.2529695,"lng":126.4611728,"addr":"인천광역시 옹진군 영흥면 영흥남로 449","isOpenAtNight":"N","hasBell":"N","male":1,"female":1,"type":"개방화장실"},{"id":"202435800000100256","nm":"심청각 공중화장실","lat":37.9795632,"lng":124.716476,"addr":"인천광역시 옹진군 백령면 백령로316번길 109-117","isOpenAtNight":"N","hasBell":"N","male":3,"female":3,"type":"공중화장실"},{"id":"202435800000100279","nm":"문갑보건진료소","lat":37.17324,"lng":126.1067922,"addr":"인천광역시 옹진군 덕적면 문갑2길 16","isOpenAtNight":"N","hasBell":"N","male":1,"female":1,"type":"개방화장실"},{"id":"202435800000100326","nm":"연평바다역","lat":37.6553,"lng":125.7125,"addr":"인천광역시 옹진군 연평면 연평로 8","isOpenAtNight":"N","hasBell":"N","male":2,"female":3,"type":"공중화장실"},{"id":"202435800000100310","nm":"농협 앞","lat":37.5387453,"lng":126.3432437,"addr":"인천광역시 옹진군 북도면","isOpenAtNight":"N","hasBell":"N","male":2,"female":2,"type":"공중화장실"},{"id":"202435800000100322","nm":"새마을","lat":37.671231,"lng":125.711293,"addr":"인천광역시 옹진군 연평면 연평로304번길 10","isOpenAtNight":"N","hasBell":"N","male":2,"female":3,"type":"공중화장실"},{"id":"202435800000100222","nm":"소야리 공중화장실","lat":37.2129018,"lng":126.1807938,"addr":"인천광역시 옹진군 덕적면 소야로 262","isOpenAtNight":"N","hasBell":"Y","male":1,"female":2,"type":"공중화장실"},{"id":"202435800000100358","nm":"측도 공중화장실","lat":37.233127,"lng":126.5145913,"addr":"인천광역시 옹진군 영흥면 선재로95번길336-100","isOpenAtNight":"N","hasBell":"N","male":2,"female":5,"type":"공중화장실"},{"id":"202435800000100198","nm":"소청초소(육경)","lat":37.4615,"lng":124.4506,"addr":"인천광역시 옹진군 대청면 소청동로76번길 42","isOpenAtNight":"N","hasBell":"N","male":1,"female":1,"type":"개방화장실"},{"id":"202435800000100335","nm":"소연평파출소","lat":37.611346,"lng":125.711754,"addr":"인천광역시 옹진군 연평면 소연평로19번길 5-4","isOpenAtNight":"N","hasBell":"N","male":0,"female":1,"type":"개방화장실"},{"id":"202435800000100290","nm":"자월보건지소 화장실","lat":37.254422,"lng":126.3081278,"addr":"인천광역시 옹진군 자월면 자월서로 164번길 23","isOpenAtNight":"N","hasBell":"N","male":2,"female":2,"type":"개방화장실"},{"id":"202435800000100323","nm":"망향공원","lat":37.681323,"lng":125.713755,"addr":"인천광역시 옹진군 연평면 연평로344번길 181","isOpenAtNight":"N","hasBell":"N","male":3,"female":4,"type":"공중화장실"},{"id":"202435800000100361","nm":"영흥119안전센터","lat":37.2559865,"lng":126.4837862,"addr":"인천광역시 옹진군 영흥면 영흥로 283-32","isOpenAtNight":"N","hasBell":"N","male":0,"female":3,"type":"개방화장실"},{"id":"202435800000100284","nm":"장봉보건지소 화장실","lat":37.5343095,"lng":126.3378029,"addr":"인천광역시 옹진군 북도면 장봉로 554","isOpenAtNight":"N","hasBell":"N","male":1,"female":2,"type":"개방화장실"},{"id":"202435800000100360","nm":"십리포 관리소 앞","lat":37.2807955,"lng":126.4822495,"addr":"인천광역시 옹진군 영흥면 영흥북로 420-26","isOpenAtNight":"N","hasBell":"Y","male":3,"female":6,"type":"공중화장실"},{"id":"202435800000100225","nm":"울도 선착장 공중화장실","lat":37.0272522,"lng":125.9985486,"addr":"인천광역시 옹진군 덕적면 울도로 176 (인근)","isOpenAtNight":"N","hasBell":"N","male":1,"female":2,"type":"공중화장실"},{"id":"202435800000100377","nm":"죽바위 소공원 공중화장실","lat":37.2467321,"lng":126.3200513,"addr":"인천광역시 옹진군 자월면 자월동로26번길 3","isOpenAtNight":"N","hasBell":"Y","male":1,"female":2,"type":"공중화장실"},{"id":"202435800000100249","nm":"3.1운동 기념공원 공중화장실","lat":37.2243678,"lng":126.1457525,"addr":"인천광역시 옹진군 덕적면 덕적북로 153","isOpenAtNight":"N","hasBell":"Y","male":1,"female":3,"type":"공중화장실"},{"id":"202435800000100216","nm":"소청분바위공중화장실","lat":37.4606,"lng":124.4559,"addr":"인천광역시 옹진군 대청면","isOpenAtNight":"N","hasBell":"Y","male":1,"female":2,"type":"공중화장실"},{"id":"202435800000100236","nm":"서포리 운동장 공중화장실","lat":37.2220656,"lng":126.1165652,"addr":"인천광역시 옹진군 덕적면 덕적남로606번길 6","isOpenAtNight":"N","hasBell":"Y","male":5,"female":5,"type":"공중화장실"},{"id":"202435800000100229","nm":"문갑도 경로당 옆 공중화장실","lat":37.172361,"lng":126.1070376,"addr":"인천광역시 옹진군 덕적면 문갑1길 8","isOpenAtNight":"N","hasBell":"N","male":1,"female":2,"type":"공중화장실"},{"id":"202435800000100202","nm":"대청파출소","lat":37.4927,"lng":124.4253,"addr":"인천광역시 옹진군 대청면 대청로7번길 9","isOpenAtNight":"N","hasBell":"N","male":1,"female":0,"type":"개방화장실"},{"id":"202435800000100372","nm":"벌안 공중화장실","lat":37.1813126,"lng":126.2229173,"addr":"인천광역시 옹진군 자월면 소이작로 230","isOpenAtNight":"N","hasBell":"N","male":3,"female":3,"type":"공중화장실"},{"id":"202435800000100199","nm":"소청우체국","lat":37.4615,"lng":124.4506,"addr":"인천광역시 옹진군 대청면 소청동로 88-40","isOpenAtNight":"N","hasBell":"N","male":1,"female":1,"type":"개방화장실"},{"id":"202435800000100286","nm":"연평보건지소 화장실","lat":37.66462,"lng":125.705202,"addr":"인천광역시 옹진군 연평면 연평중앙로24번길 3","isOpenAtNight":"N","hasBell":"N","male":2,"female":2,"type":"개방화장실"},{"id":"202435800000100363","nm":"영암 어촌계 공중화장실","lat":37.2723157,"lng":126.4429206,"addr":"인천광역시 옹진군 영흥면","isOpenAtNight":"N","hasBell":"N","male":1,"female":3,"type":"공중화장실"},{"id":"202435800000100263","nm":"사곶 해수욕장 쉼터 공중화장실","lat":37.95159,"lng":124.7209,"addr":"인천광역시 옹진군 백령면 사곶로 139","isOpenAtNight":"N","hasBell":"N","male":3,"female":4,"type":"공중화장실"},{"id":"202435800000100299","nm":"한들해수욕장","lat":37.529061,"lng":126.3455345,"addr":"인천광역시 옹진군 북도면 장봉로465번길 70","isOpenAtNight":"N","hasBell":"N","male":2,"female":5,"type":"공중화장실"},{"id":"202435800000100227","nm":"굴업도 선착장 공중화장실","lat":37.1885554,"lng":125.9828324,"addr":"인천광역시 옹진군 덕적면 굴업로 39 (인근)","isOpenAtNight":"N","hasBell":"N","male":1,"female":3,"type":"공중화장실"},{"id":"202435800000100307","nm":"노루메기","lat":37.5368416,"lng":126.4192328,"addr":"인천광역시 옹진군 북도면 시도로 190","isOpenAtNight":"N","hasBell":"Y","male":2,"female":6,"type":"공중화장실"},{"id":"202435800000100271","nm":"중화동 교회공중화장실","lat":37.92825,"lng":124.6514,"addr":"인천광역시 옹진군 백령면 중화2길 118","isOpenAtNight":"N","hasBell":"N","male":2,"female":3,"type":"공중화장실"},{"id":"202435800000100206","nm":"대청5리풋살장공중화장실","lat":37.4915,"lng":124.425,"addr":"인천광역시 옹진군 대청면 대청남로 53","isOpenAtNight":"N","hasBell":"N","male":1,"female":1,"type":"공중화장실"},{"id":"202435800000100260","nm":"장촌 공중화장실","lat":37.92202,"lng":124.6763,"addr":"인천광역시 옹진군 백령면 장촌길 168-5","isOpenAtNight":"N","hasBell":"N","male":0,"female":2,"type":"공중화장실"},{"id":"202435800000100203","nm":"대청우체국","lat":37.4925,"lng":124.4253,"addr":"인천광역시 옹진군 대청면 대청로7번길 31","isOpenAtNight":"N","hasBell":"N","male":1,"female":0,"type":"개방화장실"},{"id":"202435800000100331","nm":"대나루","lat":37.677604,"lng":125.709979,"addr":"인천광역시 옹진군 연평면 연평리 산3-148","isOpenAtNight":"N","hasBell":"N","male":1,"female":2,"type":"공중화장실"},{"id":"202435800000100308","nm":"수기해변","lat":37.5387453,"lng":126.3432437,"addr":"인천광역시 옹진군 북도면 시도 수기해수욕장 (공유수면)","isOpenAtNight":"N","hasBell":"Y","male":2,"female":2,"type":"공중화장실"},{"id":"202435800000100200","nm":"소청출장소","lat":37.4623,"lng":124.4506,"addr":"인천광역시 옹진군 대청면 소청동로 69-18","isOpenAtNight":"N","hasBell":"N","male":2,"female":1,"type":"개방화장실"},{"id":"202435800000100336","nm":"소연평 선착장","lat":37.611027,"lng":125.710861,"addr":"인천광역시 옹진군 연평면 소연평로 16","isOpenAtNight":"N","hasBell":"N","male":4,"female":4,"type":"개방화장실"},{"id":"202435800000100302","nm":"독바위","lat":37.5387453,"lng":126.3432437,"addr":"인천광역시 옹진군 북도면 장봉1리 독바위 물량장 (공유수면)","isOpenAtNight":"N","hasBell":"N","male":2,"female":2,"type":"공중화장실"},{"id":"202435800000100341","nm":"내리 어촌계 공중화장실","lat":37.2649738,"lng":126.4959497,"addr":"인천광역시 옹진군 영흥면 영흥북로 154","isOpenAtNight":"N","hasBell":"N","male":1,"female":3,"type":"공중화장실"},{"id":"202435800000100332","nm":"연평종합회관","lat":37.661344,"lng":125.702845,"addr":"인천광역시 옹진군 연평면 연평로 171-1","isOpenAtNight":"N","hasBell":"N","male":1,"female":2,"type":"개방화장실"},{"id":"202435800000100305","nm":"박주기","lat":37.5387453,"lng":126.3432437,"addr":"인천광역시 옹진군 북도면","isOpenAtNight":"N","hasBell":"N","male":1,"female":2,"type":"공중화장실"},{"id":"202435800000100321","nm":"테니스장","lat":37.661649,"lng":125.702879,"addr":"인천광역시 옹진군 연평면 연평로 168","isOpenAtNight":"N","hasBell":"N","male":3,"female":4,"type":"공중화장실"},{"id":"202435800000100253","nm":"백령파출소","lat":37.9737087,"lng":124.7209472,"addr":"인천광역시 옹진군 백령면 백령로278번길 57","isOpenAtNight":"N","hasBell":"N","male":0,"female":2,"type":"개방화장실"},{"id":"202435800000100243","nm":"서포리 말바위 공중화장실","lat":37.2184101,"lng":126.1162714,"addr":"인천광역시 옹진군 덕적면 덕적남로531번길 38","isOpenAtNight":"N","hasBell":"N","male":3,"female":4,"type":"공중화장실"},{"id":"202435800000100239","nm":"서포리 해변민박 앞 공중화장실","lat":37.223085,"lng":126.1131627,"addr":"인천광역시 옹진군 덕적면 덕적남로587번길 49","isOpenAtNight":"N","hasBell":"Y","male":5,"female":5,"type":"공중화장실"},{"id":"202435800000100268","nm":"진촌리현무암(하늬해변) 공중화장실","lat":37.97189,"lng":124.7308,"addr":"인천광역시 옹진군 백령면 백령로 278","isOpenAtNight":"N","hasBell":"N","male":1,"female":2,"type":"공중화장실"},{"id":"202435800000100258","nm":"두무진 선착장 공중화장실","lat":37.97404,"lng":124.6225,"addr":"인천광역시 옹진군 백령면 두무진로 550-16","isOpenAtNight":"N","hasBell":"N","male":5,"female":7,"type":"공중화장실"},{"id":"202435800000100374","nm":"계남리 공중화장실","lat":37.1732425,"lng":126.2623501,"addr":"인천광역시 옹진군 자월면 대이작로 412-8","isOpenAtNight":"N","hasBell":"N","male":1,"female":1,"type":"공중화장실"},{"id":"202435800000100349","nm":"장경리 주차장 공중화장실","lat":37.2724291,"lng":126.4524065,"addr":"인천광역시 옹진군 영흥면 영흥로 741","isOpenAtNight":"N","hasBell":"Y","male":2,"female":5,"type":"공중화장실"},{"id":"202435800000100281","nm":"덕적보건지소 화장실","lat":37.2261474,"lng":126.1471142,"addr":"인천광역시 옹진군 덕적면 덕적남로 7-1","isOpenAtNight":"N","hasBell":"N","male":1,"female":1,"type":"개방화장실"},{"id":"202435800000100346","nm":"전적비 공중화장실","lat":37.2571701,"lng":126.4858298,"addr":"인천광역시 옹진군 영흥면 영흥로251번길 25-8","isOpenAtNight":"N","hasBell":"N","male":2,"female":4,"type":"공중화장실"},{"id":"202435800000100261","nm":"콩돌해안 공중화장실","lat":37.92964,"lng":124.7027,"addr":"인천광역시 옹진군 백령면 콩돌로 183","isOpenAtNight":"N","hasBell":"N","male":2,"female":7,"type":"공중화장실"},{"id":"202435800000100292","nm":"소이작보건진료소 화장실","lat":37.1815316,"lng":126.2390785,"addr":"인천광역시 옹진군 자월면 소이작로42번길 5-2","isOpenAtNight":"N","hasBell":"N","male":2,"female":1,"type":"개방화장실"},{"id":"202435800000100275","nm":"소청보건진료소 화장실","lat":37.7730555,"lng":124.7548078,"addr":"인천광역시 옹진군 대청면 소청동로71번길 3","isOpenAtNight":"N","hasBell":"N","male":1,"female":1,"type":"개방화장실"},{"id":"202435800000100242","nm":"서포리 부천민박앞 공중화장실","lat":37.2213589,"lng":126.1152963,"addr":"인천광역시 옹진군 덕적면 덕적남로 573","isOpenAtNight":"N","hasBell":"Y","male":4,"female":5,"type":"공중화장실"},{"id":"202435800000100380","nm":"장골(신) 해수욕장 공중화장실","lat":37.250008,"lng":126.3120689,"addr":"인천광역시 옹진군 자월면 자월서로 91","isOpenAtNight":"N","hasBell":"Y","male":3,"female":7,"type":"공중화장실"},{"id":"202435800000100244","nm":"블루비치 앞 공중화장실","lat":37.2154899,"lng":126.1391129,"addr":"인천광역시 옹진군 덕적면 덕적남로 209","isOpenAtNight":"N","hasBell":"N","male":1,"female":3,"type":"공중화장실"},{"id":"202435800000100312","nm":"신도바다역","lat":37.5150769,"lng":126.4388447,"addr":"인천광역시 옹진군 북도면 신도로 3","isOpenAtNight":"N","hasBell":"Y","male":2,"female":6,"type":"공중화장실"},{"id":"202435800000100384","nm":"자월치안센터","lat":37.253359,"lng":126.3055021,"addr":"인천광역시 옹진군 자월면 자월서로101번길 164","isOpenAtNight":"N","hasBell":"N","male":0,"female":1,"type":"개방화장실"},{"id":"202435800000100231","nm":"소야리 선착장 공중화장실","lat":37.2240295,"lng":126.1598282,"addr":"인천광역시 옹진군 덕적면 소야로 2","isOpenAtNight":"N","hasBell":"Y","male":2,"female":3,"type":"공중화장실"},{"id":"202435800000100247","nm":"진2리 목섬 공중화장실","lat":37.2377708,"lng":126.1415222,"addr":"인천광역시 옹진군 덕적면 덕적북로224번길 154-7 (인근)","isOpenAtNight":"N","hasBell":"N","male":1,"female":2,"type":"공중화장실"},{"id":"202435800000100237","nm":"서포리 솔밭 공중화장실","lat":37.2236586,"lng":126.1151635,"addr":"인천광역시 옹진군 덕적면 덕적남로 617","isOpenAtNight":"N","hasBell":"N","male":2,"female":2,"type":"공중화장실"},{"id":"202435800000100383","nm":"자월119치안센터","lat":37.2502552,"lng":126.314353,"addr":"인천광역시 옹진군 자월면 자월서로 86","isOpenAtNight":"N","hasBell":"N","male":6,"female":3,"type":"개방화장실"},{"id":"202435800000100221","nm":"바다역화장실","lat":37.2274856,"lng":126.1549853,"addr":"인천광역시 옹진군 덕적면 덕적북로 31","isOpenAtNight":"N","hasBell":"N","male":2,"female":4,"type":"개방화장실"},{"id":"202435800000100373","nm":"소이작 선착장 공중화장실","lat":37.1720373,"lng":126.2413478,"addr":"인천광역시 옹진군 자월면 소이작로 14","isOpenAtNight":"N","hasBell":"Y","male":1,"female":3,"type":"공중화장실"},{"id":"202435800000100376","nm":"대이작 헬기장 앞 공중화장실","lat":37.1769468,"lng":126.2538939,"addr":"인천광역시 옹진군 자월면 대이작로 74","isOpenAtNight":"N","hasBell":"N","male":2,"female":4,"type":"공중화장실"},{"id":"202435800000100262","nm":"종합운동장 공중화장실","lat":37.93929,"lng":124.6989,"addr":"인천광역시 옹진군 백령면 백령남로 458","isOpenAtNight":"N","hasBell":"N","male":3,"female":8,"type":"공중화장실"},{"id":"202435800000100342","nm":"진두 선착장(남자) 화장실 / (여자) 화장실","lat":37.2547806,"lng":126.4971515,"addr":"인천광역시 옹진군 영흥면 영흥로 109-12","isOpenAtNight":"N","hasBell":"N","male":4,"female":7,"type":"공중화장실"},{"id":"202435800000100368","nm":"안마을 공중화장실","lat":37.1728785,"lng":126.2957355,"addr":"인천광역시 옹진군 자월면 승봉로29번길 100-13","isOpenAtNight":"N","hasBell":"N","male":1,"female":1,"type":"공중화장실"},{"id":"202435800000100273","nm":"용트림 공중화장실","lat":37.92012,"lng":124.671,"addr":"인천광역시 옹진군 백령면 백령남로 723","isOpenAtNight":"N","hasBell":"N","male":1,"female":3,"type":"공중화장실"},{"id":"202435800000100356","nm":"검은여 공중화장실(진두) 공중화장실","lat":37.2588778,"lng":126.5013396,"addr":"인천광역시 옹진군 영흥면 영흥북로 74","isOpenAtNight":"N","hasBell":"N","male":1,"female":3,"type":"공중화장실"},{"id":"202435800000100390","nm":"부아산 공중화장실","lat":37.1776614,"lng":126.2615751,"addr":"인천광역시 옹진군 자월면 대이작로 70","isOpenAtNight":"N","hasBell":"N","male":1,"female":1,"type":"공중화장실"},{"id":"202435800000100254","nm":"백령면사무소","lat":37.9742219,"lng":124.7213638,"addr":"인천광역시 옹진군 백령면 백령로278번길 61-2","isOpenAtNight":"N","hasBell":"N","male":5,"female":8,"type":"개방화장실"},{"id":"202435800000100327","nm":"연평면사무소","lat":37.664537,"lng":125.701839,"addr":"인천광역시 옹진군 연평면 연평리 465","isOpenAtNight":"N","hasBell":"N","male":2,"female":4,"type":"개방화장실"},{"id":"202435800000100250","nm":"백아도 보건소마을 공중화장실","lat":37.0848695,"lng":125.9513027,"addr":"인천광역시 옹진군 덕적면 백아로 64","isOpenAtNight":"N","hasBell":"N","male":1,"female":3,"type":"공중화장실"},{"id":"202435800000100366","nm":"선재3리 낚시터 공중화장실","lat":37.2512919,"lng":126.5171433,"addr":"인천광역시 옹진군 영흥면","isOpenAtNight":"N","hasBell":"N","male":1,"female":4,"type":"공중화장실"},{"id":"202435800000100329","nm":"공설묘지","lat":37.671289,"lng":125.707104,"addr":"인천광역시 옹진군 연평면 661-5","isOpenAtNight":"N","hasBell":"N","male":1,"female":2,"type":"공중화장실"},{"id":"202435800000100212","nm":"지두리해변공중화장실","lat":37.4914,"lng":124.4045,"addr":"인천광역시 옹진군 대청면 대청로530번길 130","isOpenAtNight":"N","hasBell":"N","male":1,"female":4,"type":"공중화장실"},{"id":"202435800000100282","nm":"가을보건진료소 화장실","lat":37.9523021,"lng":124.6560072,"addr":"인천광역시 옹진군 백령면 백령로938번길 71","isOpenAtNight":"N","hasBell":"N","male":0,"female":1,"type":"개방화장실"},{"id":"202435800000100285","nm":"북도보건지소 화장실","lat":37.5326417,"lng":126.4270873,"addr":"인천광역시 옹진군 북도면 시도로61번길 75-6","isOpenAtNight":"N","hasBell":"N","male":2,"female":2,"type":"개방화장실"},{"id":"202435800000100257","nm":"진촌시장 공중화장실","lat":37.9719,"lng":124.7205,"addr":"인천광역시 옹진군 백령면 백령로278번길 13","isOpenAtNight":"N","hasBell":"N","male":2,"female":4,"type":"공중화장실"},{"id":"202435800000100381","nm":"장골(구) 해수욕장 공중화장실","lat":37.250008,"lng":126.3120689,"addr":"인천광역시 옹진군 자월면 자월서로 91","isOpenAtNight":"N","hasBell":"Y","male":2,"female":2,"type":"공중화장실"},{"id":"202435800000100334","nm":"소연평해양경찰서","lat":37.61098,"lng":125.710551,"addr":"인천광역시 옹진군 연평면 소연평로 14","isOpenAtNight":"N","hasBell":"N","male":0,"female":1,"type":"개방화장실"},{"id":"202435800000100234","nm":"북1리 공중화장실","lat":37.2501354,"lng":126.1159437,"addr":"인천광역시 옹진군 덕적면 덕적북로 507","isOpenAtNight":"N","hasBell":"N","male":1,"female":3,"type":"공중화장실"},{"id":"202435800000100245","nm":"밧지름해수욕장 공중화장실","lat":37.2149552,"lng":126.1402573,"addr":"인천광역시 옹진군 덕적면 덕적남로 207-1","isOpenAtNight":"N","hasBell":"Y","male":3,"female":5,"type":"공중화장실"},{"id":"202435800000100278","nm":"백아보건진료소 화장실","lat":37.085471,"lng":125.9575491,"addr":"인천광역시 옹진군 덕적면 백아로 88","isOpenAtNight":"N","hasBell":"N","male":1,"female":1,"type":"개방화장실"},{"id":"202435800000100364","nm":"선재 넛출 공중화장실","lat":37.2534278,"lng":126.5107557,"addr":"인천광역시 옹진군 영흥면","isOpenAtNight":"N","hasBell":"N","male":1,"female":2,"type":"공중화장실"},{"id":"202435800000100248","nm":"백아도 마을 공중화장실","lat":37.0854902,"lng":125.9517801,"addr":"인천광역시 옹진군 덕적면 백아로 128 (인근)","isOpenAtNight":"N","hasBell":"N","male":2,"female":3,"type":"공중화장실"},{"id":"202435800000100298","nm":"야달선착장","lat":37.5506921,"lng":126.4543984,"addr":"인천광역시 옹진군 북도면 장봉2리 야달항 물량장","isOpenAtNight":"N","hasBell":"N","male":1,"female":2,"type":"공중화장실"},{"id":"202435800000100371","nm":"벌안 물량장 공중화장실","lat":37.1832621,"lng":126.2396415,"addr":"인천광역시 옹진군 자월면 소이작로 307","isOpenAtNight":"N","hasBell":"N","male":2,"female":2,"type":"공중화장실"},{"id":"202435800000100375","nm":"큰풀안 공중화장실","lat":37.1696322,"lng":126.2640938,"addr":"인천광역시 옹진군 자월면 대이작로160번길 157","isOpenAtNight":"N","hasBell":"N","male":2,"female":2,"type":"공중화장실"},{"id":"202435800000100218","nm":"선진포항 공중화장실","lat":37.4941,"lng":124.4303,"addr":"인천광역시 옹진군 대청면 대청로 2","isOpenAtNight":"N","hasBell":"Y","male":2,"female":3,"type":"공중화장실"},{"id":"202435800000100291","nm":"승봉보건진료소 화장실","lat":37.16794,"lng":126.29869,"addr":"인천광역시 옹진군 자월면 승봉로 90-2","isOpenAtNight":"N","hasBell":"N","male":1,"female":1,"type":"개방화장실"},{"id":"202435800000100392","nm":"부두치 공중화장실","lat":37.1660151,"lng":126.3083134,"addr":"인천광역시 옹진군 자월면 승봉로 111","isOpenAtNight":"N","hasBell":"N","male":1,"female":2,"type":"공중화장실"},{"id":"202435800000100314","nm":"북도면사무소","lat":37.5322355,"lng":126.4293379,"addr":"인천광역시 옹진군 북도면 시도로 82","isOpenAtNight":"N","hasBell":"N","male":2,"female":4,"type":"개방화장실"},{"id":"202435800000100270","nm":"사항포구 공중화장실","lat":37.97276,"lng":124.6517,"addr":"인천광역시 옹진군 백령면 가을길 117","isOpenAtNight":"N","hasBell":"N","male":0,"female":1,"type":"공중화장실"},{"id":"202435800000100272","nm":"중화동 포구 공중화장실","lat":37.92266,"lng":124.6564,"addr":"인천광역시 옹진군 백령면 중화2길 145","isOpenAtNight":"N","hasBell":"N","male":1,"female":2,"type":"공중화장실"},{"id":"202435800000100266","nm":"백령119안전센터","lat":37.9674566,"lng":124.7207451,"addr":"인천광역시 옹진군 백령면 백령남로 30","isOpenAtNight":"N","hasBell":"N","male":4,"female":1,"type":"개방화장실"},{"id":"202435800000100294","nm":"울도보건진료소 화장실","lat":37.027423,"lng":125.99857,"addr":"인천광역시 옹진군 자월면 대이작로70번안길 25-5","isOpenAtNight":"N","hasBell":"N","male":2,"female":2,"type":"개방화장실"},{"id":"202435800000100241","nm":"서포리 외국인 공중화장실","lat":37.2225156,"lng":126.1141198,"addr":"인천광역시 옹진군 덕적면 덕적남로587번길 15","isOpenAtNight":"N","hasBell":"Y","male":4,"female":8,"type":"공중화장실"},{"id":"202435800000100233","nm":"북2리 물량장 공중화장실","lat":37.2521058,"lng":126.1181639,"addr":"인천광역시 옹진군 덕적면 덕적북로518번길 49","isOpenAtNight":"N","hasBell":"Y","male":1,"female":3,"type":"공중화장실"}]}