{"items":[{"id":"202436100000100042","nm":"방림2동행정복지센터","lat":35.13192,"lng":126.92199,"addr":"광주광역시 남구 천변좌로566번다길 12","isOpenAtNight":"N","hasBell":"N","male":2,"female":1,"type":"개방화장실"},{"id":"202436100000100100","nm":"늘푸른주유소","lat":35.14,"lng":126.9018,"addr":"광주광역시 남구 독립로 69","isOpenAtNight":"N","hasBell":"N","male":1,"female":1,"type":"개방화장실"},{"id":"202436100000100159","nm":"대양자동차공업사","lat":35.10997,"lng":126.87781,"addr":"광주광역시 남구 송암로 52","isOpenAtNight":"N","hasBell":"N","male":1,"female":1,"type":"개방화장실"},{"id":"202436100000100198","nm":"봉선삼익2차아파트관리사무소","lat":35.12391,"lng":126.91492,"addr":"광주광역시 남구 봉선로175번길 6","isOpenAtNight":"N","hasBell":"N","male":2,"female":1,"type":"개방화장실"},{"id":"202436100000100043","nm":"봉선1동행정복지센터","lat":35.13034,"lng":126.91174,"addr":"광주광역시 남구 봉선중앙로 106","isOpenAtNight":"N","hasBell":"N","male":1,"female":4,"type":"개방화장실"},{"id":"202436100000100127","nm":"광주향교 충효관","lat":35.14598,"lng":126.90903,"addr":"광주광역시 남구 중앙로107번길 5","isOpenAtNight":"N","hasBell":"N","male":2,"female":2,"type":"개방화장실"},{"id":"202436100000100131","nm":"미래아동병원(1F)","lat":35.13374,"lng":126.91071,"addr":"광주광역시 남구 대남대로 131","isOpenAtNight":"N","hasBell":"N","male":2,"female":2,"type":"개방화장실"},{"id":"202436100000100060","nm":"대촌파출소","lat":35.08025,"lng":126.8346,"addr":"광주광역시 남구 고싸움로 136","isOpenAtNight":"N","hasBell":"N","male":1,"female":1,"type":"개방화장실"},{"id":"202436100000100047","nm":"월산4동행정복지센터","lat":35.1466,"lng":126.89074,"addr":"광주광역시 남구 대남대로390번길 11","isOpenAtNight":"N","hasBell":"N","male":1,"female":1,"type":"개방화장실"},{"id":"202436100000100081","nm":"사직공원 사직단","lat":35.14253,"lng":126.91214,"addr":"광주광역시 남구 사직길 49","isOpenAtNight":"N","hasBell":"N","male":1,"female":4,"type":"개방화장실"},{"id":"202436100000100110","nm":"대촌주유소","lat":35.08184,"lng":126.83145,"addr":"광주광역시 남구 고싸움로 169","isOpenAtNight":"N","hasBell":"N","male":0,"female":0,"type":"개방화장실"},{"id":"202436100000100170","nm":"삼천불교상사","lat":35.13505,"lng":126.92177,"addr":"광주광역시 남구 천변좌로518","isOpenAtNight":"N","hasBell":"N","male":0,"female":0,"type":"개방화장실"},{"id":"202436100000100137","nm":"광주양림교회","lat":35.13648,"lng":126.91596,"addr":"광주광역시 남구 3·1만세운동길 10","isOpenAtNight":"N","hasBell":"N","male":3,"female":9,"type":"개방화장실"},{"id":"202436100000100184","nm":"양림미술관(유진벨선교기념관)","lat":35.14059,"lng":126.91287,"addr":"광주광역시 남구 제중로 70","isOpenAtNight":"N","hasBell":"N","male":1,"female":2,"type":"개방화장실"},{"id":"202436100000100199","nm":"동양콘테이너","lat":35.10871,"lng":126.88631,"addr":"광주광역시 남구 서문대로 487","isOpenAtNight":"N","hasBell":"N","male":0,"female":0,"type":"개방화장실"},{"id":"202436100000100120","nm":"대광충전소","lat":35.11008,"lng":126.88289,"addr":"광주광역시 남구 송암로24번나길 14-20","isOpenAtNight":"N","hasBell":"N","male":1,"female":1,"type":"개방화장실"},{"id":"202436100000100179","nm":"주은빌딩","lat":35.12262,"lng":126.91098,"addr":"광주광역시 남구 봉선로 146","isOpenAtNight":"N","hasBell":"N","male":2,"female":2,"type":"개방화장실"},{"id":"202436100000100029","nm":"고싸움놀이 영상체험관","lat":35.06929,"lng":126.83579,"addr":"광주광역시 남구 고싸움로 2","isOpenAtNight":"N","hasBell":"Y","male":1,"female":2,"type":"공중화장실"},{"id":"202436100000100093","nm":"서양새마을금고주유소","lat":35.14604,"lng":126.90387,"addr":"광주광역시 남구 독립로140","isOpenAtNight":"N","hasBell":"N","male":2,"female":2,"type":"개방화장실"},{"id":"202436100000100022","nm":"월산근린2화장실","lat":35.14061,"lng":126.89683,"addr":"광주광역시 남구 대남대로308번길 20","isOpenAtNight":"N","hasBell":"Y","male":1,"female":3,"type":"공중화장실"},{"id":"202436100000100145","nm":"무등시장상인영상교육장","lat":35.13602,"lng":126.8942,"addr":"광주광역시 남구 군분로23번길 4-3","isOpenAtNight":"N","hasBell":"N","male":1,"female":5,"type":"개방화장실"},{"id":"202436100000100183","nm":"양림전통맛집","lat":35.13754,"lng":126.91546,"addr":"광주광역시 남구 양림로 59","isOpenAtNight":"N","hasBell":"N","male":1,"female":1,"type":"개방화장실"},{"id":"202436100000100109","nm":"효천주유소","lat":35.0967,"lng":126.87659,"addr":"광주광역시 남구 서문대로 321","isOpenAtNight":"N","hasBell":"N","male":1,"female":1,"type":"개방화장실"},{"id":"202436100000100135","nm":"광주서남교회","lat":35.13669,"lng":126.90264,"addr":"광주광역시 남구 진다리로 12","isOpenAtNight":"N","hasBell":"N","male":10,"female":10,"type":"개방화장실"},{"id":"202436100000100084","nm":"양림마을 이야기관","lat":35.14197,"lng":126.91552,"addr":"광주광역시 남구 남구 서서평길 7","isOpenAtNight":"N","hasBell":"N","male":1,"female":5,"type":"개방화장실"},{"id":"202436100000100089","nm":"광주광역시 시립수목원 B동","lat":35.08983,"lng":126.88197,"addr":"광주광역시 남구 서문대로236번길 43","isOpenAtNight":"N","hasBell":"Y","male":3,"female":7,"type":"개방화장실"},{"id":"202436100000100140","nm":"광주상록교회","lat":35.14855,"lng":126.89191,"addr":"광주광역시 남구 경열로54번길 24","isOpenAtNight":"N","hasBell":"N","male":1,"female":2,"type":"개방화장실"},{"id":"202436100000100078","nm":"광주공원 현충탑 옆","lat":35.14645,"lng":126.91003,"addr":"광주광역시 남구 중앙로 107번길 16","isOpenAtNight":"N","hasBell":"N","male":1,"female":4,"type":"개방화장실"},{"id":"202436100000100033","nm":"설월여고화장실","lat":35.12697,"lng":126.92728,"addr":"광주광역시 남구 방림동 30","isOpenAtNight":"N","hasBell":"N","male":2,"female":2,"type":"공중화장실"},{"id":"202436100000100017","nm":"월산2어린이공원화장실","lat":35.14082,"lng":126.89546,"addr":"광주광역시 남구 군분로62번길 10","isOpenAtNight":"N","hasBell":"Y","male":1,"female":2,"type":"공중화장실"},{"id":"202436100000100128","nm":"인애종합사회복지관","lat":35.12482,"lng":126.91774,"addr":"광주광역시 남구 용대로 91","isOpenAtNight":"N","hasBell":"N","male":0,"female":1,"type":"개방화장실"},{"id":"202436100000100202","nm":"대승자동차","lat":35.13837,"lng":126.90355,"addr":"광주광역시 남구 독립로54번길 18","isOpenAtNight":"N","hasBell":"N","male":1,"female":1,"type":"개방화장실"},{"id":"202436100000100045","nm":"사직동행정복지센터","lat":35.14578,"lng":126.908,"addr":"광주광역시 남구 중앙로95번길 14","isOpenAtNight":"N","hasBell":"N","male":2,"female":2,"type":"개방화장실"},{"id":"202436100000100121","nm":"광주LPG충전소","lat":35.11391,"lng":126.87391,"addr":"광주광역시 남구 송암로 106","isOpenAtNight":"N","hasBell":"N","male":1,"female":1,"type":"개방화장실"},{"id":"202436100000100185","nm":"성현빌딩","lat":35.1216,"lng":126.91626,"addr":"광주광역시 남구 효사랑길 12","isOpenAtNight":"N","hasBell":"Y","male":1,"female":2,"type":"개방화장실"},{"id":"202436100000100034","nm":"승촌공원 소수력 화장실","lat":35.06719,"lng":126.76398,"addr":"광주광역시 남구 승촌동 559-6","isOpenAtNight":"N","hasBell":"Y","male":0,"female":2,"type":"공중화장실"},{"id":"202436100000100178","nm":"돈미가","lat":35.11055,"lng":126.8965,"addr":"광주광역시 남구 효덕로 304-1","isOpenAtNight":"N","hasBell":"N","male":1,"female":1,"type":"개방화장실"},{"id":"202436100000100075","nm":"광주광역시립사직도서관","lat":35.13952,"lng":126.91395,"addr":"광주광역시 남구 제중로 56","isOpenAtNight":"N","hasBell":"N","male":2,"female":4,"type":"개방화장실"},{"id":"202436100000100149","nm":"타이어프로 남구월산점","lat":35.14383,"lng":126.89068,"addr":"광주광역시 남구 금화로421번길 1","isOpenAtNight":"N","hasBell":"N","male":0,"female":0,"type":"개방화장실"},{"id":"202436100000100124","nm":"송원대학(청솔관 1층)","lat":35.11107,"lng":126.87488,"addr":"광주광역시 남구 송암로 73","isOpenAtNight":"N","hasBell":"Y","male":2,"female":3,"type":"개방화장실"},{"id":"202436100000100163","nm":"동우카센터","lat":35.13493,"lng":126.90942,"addr":"광주광역시 남구 백운로 9","isOpenAtNight":"N","hasBell":"N","male":0,"female":0,"type":"개방화장실"},{"id":"202436100000100036","nm":"캠핑장1 화장실","lat":35.06332,"lng":126.75672,"addr":"광주광역시 남구 승촌동 601","isOpenAtNight":"N","hasBell":"Y","male":0,"female":2,"type":"공중화장실"},{"id":"202436100000100010","nm":"방림1어린이공원화장실","lat":35.13341,"lng":126.91589,"addr":"광주광역시 남구 용대로183번길 9","isOpenAtNight":"N","hasBell":"Y","male":1,"female":2,"type":"공중화장실"},{"id":"202436100000100188","nm":"봉선셀프세차클럽","lat":35.12799,"lng":126.91942,"addr":"광주광역시 남구 오방로 31","isOpenAtNight":"N","hasBell":"N","male":0,"female":0,"type":"개방화장실"},{"id":"202436100000100129","nm":"광주공원노인복지회관","lat":35.14747,"lng":126.90791,"addr":"광주광역시 남구 서오층석탑2길 17","isOpenAtNight":"N","hasBell":"N","male":1,"female":2,"type":"개방화장실"},{"id":"202436100000100153","nm":"뜨락","lat":35.11486,"lng":126.90759,"addr":"광주광역시 남구 화산로 105","isOpenAtNight":"N","hasBell":"N","male":1,"female":2,"type":"개방화장실"},{"id":"202436100000100160","nm":"㈜하이마트(봉선점)(2F)","lat":35.1282,"lng":126.90426,"addr":"광주광역시 남구 봉선로 56","isOpenAtNight":"N","hasBell":"N","male":1,"female":1,"type":"개방화장실"},{"id":"202436100000100025","nm":"풀빛근린공원화장실","lat":35.10864,"lng":126.90181,"addr":"광주광역시 남구 효덕로 314-44","isOpenAtNight":"N","hasBell":"Y","male":1,"female":3,"type":"공중화장실"},{"id":"202436100000100136","nm":"포도원교회(1F, 별관)","lat":35.11926,"lng":126.89556,"addr":"광주광역시 남구 광복마을3길 23","isOpenAtNight":"N","hasBell":"N","male":6,"female":9,"type":"개방화장실"},{"id":"202436100000100161","nm":"궁전제과(진월점)","lat":35.12184,"lng":126.89816,"addr":"광주광역시 남구 서문대로 701","isOpenAtNight":"N","hasBell":"N","male":1,"female":2,"type":"개방화장실"},{"id":"202436100000100097","nm":"대원주유소","lat":35.14111,"lng":126.8934,"addr":"광주광역시 남구 대남대로 329","isOpenAtNight":"N","hasBell":"N","male":2,"female":2,"type":"개방화장실"},{"id":"202436100000100150","nm":"우빈모터스(구.현대블루핸즈월산점)","lat":35.14411,"lng":126.89081,"addr":"광주광역시 남구 금화로 423","isOpenAtNight":"N","hasBell":"N","male":1,"female":1,"type":"개방화장실"},{"id":"202436100000100101","nm":"무지개self주유소","lat":35.13571,"lng":126.90182,"addr":"광주광역시 남구 독립로 24","isOpenAtNight":"N","hasBell":"N","male":2,"female":2,"type":"개방화장실"},{"id":"202436100000100132","nm":"광주기독병원","lat":35.13669,"lng":126.91208,"addr":"광주광역시 남구 양림로 37","isOpenAtNight":"N","hasBell":"N","male":2,"female":2,"type":"개방화장실"},{"id":"202436100000100138","nm":"광주남부교회","lat":35.13933,"lng":126.89347,"addr":"광주광역시 남구 군분로62번길 7","isOpenAtNight":"N","hasBell":"N","male":1,"female":6,"type":"개방화장실"},{"id":"202436100000100015","nm":"봉선3어린이공원화장실","lat":35.12995,"lng":126.90921,"addr":"광주광역시 남구 봉선1로16번안길 14","isOpenAtNight":"N","hasBell":"Y","male":1,"female":2,"type":"공중화장실"},{"id":"202436100000100066","nm":"효천역","lat":35.10504,"lng":126.87893,"addr":"광주광역시 남구 효천길 5","isOpenAtNight":"N","hasBell":"N","male":1,"female":2,"type":"개방화장실"},{"id":"202436100000100020","nm":"유안근린공원화장실","lat":35.12311,"lng":126.91383,"addr":"광주광역시 남구 봉선로 195","isOpenAtNight":"N","hasBell":"Y","male":3,"female":8,"type":"공중화장실"},{"id":"202436100000100122","nm":"효천LPG충전소","lat":35.09478,"lng":126.87613,"addr":"광주광역시 남구 서문대로 297 외3","isOpenAtNight":"N","hasBell":"N","male":2,"female":2,"type":"개방화장실"},{"id":"202436100000100068","nm":"마을공동체협력센터(1층)","lat":35.11131,"lng":126.89923,"addr":"광주광역시 남구 화산로 32","isOpenAtNight":"N","hasBell":"N","male":1,"female":3,"type":"개방화장실"},{"id":"202436100000100039","nm":"중앙대교 좌안 화장실","lat":35.14744,"lng":126.91105,"addr":"광주광역시 남구 구동 76","isOpenAtNight":"N","hasBell":"Y","male":1,"female":1,"type":"공중화장실"},{"id":"202436100000100085","nm":"빛고을 노인건강타운","lat":35.10074,"lng":126.8972,"addr":"광주광역시 남구 덕남길 7","isOpenAtNight":"N","hasBell":"Y","male":6,"female":9,"type":"개방화장실"},{"id":"202436100000100112","nm":"남선석유㈜구도일주유소","lat":35.13188,"lng":126.89174,"addr":"광주광역시 남구 회재로 1190","isOpenAtNight":"N","hasBell":"N","male":2,"female":2,"type":"개방화장실"},{"id":"202436100000100172","nm":"신통한약방","lat":35.1345,"lng":126.92036,"addr":"광주광역시 남구 방림로 26-2","isOpenAtNight":"N","hasBell":"N","male":0,"female":0,"type":"개방화장실"},{"id":"202436100000100019","nm":"봉선근린공원화장실","lat":35.12995,"lng":126.90921,"addr":"광주광역시 남구 봉선중앙로 102","isOpenAtNight":"N","hasBell":"Y","male":2,"female":4,"type":"공중화장실"},{"id":"202436100000100119","nm":"반디가스 송암점","lat":35.10853,"lng":126.87972,"addr":"광주광역시 남구 송암로 28","isOpenAtNight":"N","hasBell":"N","male":1,"female":1,"type":"개방화장실"},{"id":"202436100000100193","nm":"봉선동 삼익1차 상가","lat":35.12471,"lng":126.91297,"addr":"광주광역시 남구 봉선중앙로48","isOpenAtNight":"N","hasBell":"N","male":2,"female":2,"type":"개방화장실"},{"id":"202436100000100168","nm":"라인카서비스","lat":35.13145,"lng":126.91825,"addr":"광주광역시 남구 용대로 170","isOpenAtNight":"N","hasBell":"N","male":0,"female":0,"type":"개방화장실"},{"id":"202436100000100012","nm":"방림3어린이공원화장실","lat":35.13072,"lng":126.92144,"addr":"광주광역시 남구 용대로 149-14","isOpenAtNight":"N","hasBell":"Y","male":1,"female":2,"type":"공중화장실"},{"id":"202436100000100074","nm":"김치박물관","lat":35.10927,"lng":126.86557,"addr":"광주광역시 남구 김치로 60","isOpenAtNight":"N","hasBell":"N","male":2,"female":3,"type":"개방화장실"},{"id":"202436100000100083","nm":"효덕동행정복지센터","lat":35.10193,"lng":126.89436,"addr":"광주광역시 남구 효우로 200","isOpenAtNight":"N","hasBell":"N","male":2,"female":2,"type":"개방화장실"},{"id":"202436100000100141","nm":"광주삼광교회(구.대성교회)","lat":35.14282,"lng":126.90616,"addr":"광주광역시 남구 백운로 107","isOpenAtNight":"N","hasBell":"N","male":1,"female":2,"type":"개방화장실"},{"id":"202436100000100011","nm":"방림2어린이공원화장실","lat":35.13341,"lng":126.91589,"addr":"광주광역시 남구 봉선초등길 21-5","isOpenAtNight":"N","hasBell":"Y","male":1,"female":2,"type":"공중화장실"},{"id":"202436100000100072","nm":"남구다목적체육관","lat":35.11334,"lng":126.90326,"addr":"광주광역시 남구 화산로 110","isOpenAtNight":"N","hasBell":"N","male":3,"female":10,"type":"개방화장실"},{"id":"202436100000100086","nm":"빛고을골프장 화장실","lat":35.09831,"lng":126.89898,"addr":"광주광역시 남구 효우로 153(노대동)","isOpenAtNight":"N","hasBell":"N","male":11,"female":15,"type":"개방화장실"},{"id":"202436100000100151","nm":"옥주 카센터","lat":35.13993,"lng":126.90617,"addr":"광주광역시 남구 백운로 76","isOpenAtNight":"N","hasBell":"N","male":0,"female":0,"type":"개방화장실"},{"id":"202436100000100186","nm":"양림펭귄마을협동조합(달콩이휴게소)","lat":35.1391,"lng":126.91686,"addr":"광주광역시 남구 오기원안길 3","isOpenAtNight":"N","hasBell":"N","male":3,"female":5,"type":"개방화장실"},{"id":"202436100000100024","nm":"효천천변길근린공원화장실","lat":35.10017,"lng":126.88634,"addr":"광주광역시 남구 효우2로 65","isOpenAtNight":"N","hasBell":"Y","male":3,"female":8,"type":"공중화장실"},{"id":"202436100000100018","nm":"제석꿈샘어린이공원화장실","lat":35.12311,"lng":126.91383,"addr":"광주광역시 남구 봉선2동 54-1","isOpenAtNight":"N","hasBell":"N","male":1,"female":1,"type":"공중화장실"},{"id":"202436100000100065","nm":"교통안전공단","lat":35.11354,"lng":126.8752,"addr":"광주광역시 남구 송암로 96","isOpenAtNight":"N","hasBell":"N","male":2,"female":1,"type":"개방화장실"},{"id":"202436100000100173","nm":"진월카서비스","lat":35.11203,"lng":126.89949,"addr":"광주광역시 남구 화산로25","isOpenAtNight":"N","hasBell":"N","male":0,"female":0,"type":"개방화장실"},{"id":"202436100000100014","nm":"봉선2어린이공원화장실","lat":35.12995,"lng":126.90921,"addr":"광주광역시 남구 유안초등북2길 17","isOpenAtNight":"N","hasBell":"Y","male":1,"female":1,"type":"공중화장실"},{"id":"202436100000100108","nm":"양촌주유소","lat":35.06071,"lng":126.79089,"addr":"광주광역시 남구 포충로 121","isOpenAtNight":"N","hasBell":"N","male":0,"female":0,"type":"개방화장실"},{"id":"202436100000100087","nm":"남구효천문화복합 커뮤니티센터","lat":35.10202,"lng":126.89444,"addr":"광주광역시 남구 효우로 208","isOpenAtNight":"N","hasBell":"N","male":2,"female":4,"type":"개방화장실"},{"id":"202436100000100026","nm":"효천근린공원화장실","lat":35.10521,"lng":126.86689,"addr":"광주광역시 남구 효천3로 38","isOpenAtNight":"N","hasBell":"Y","male":1,"female":3,"type":"공중화장실"},{"id":"202436100000100073","nm":"로컬푸드직매장","lat":35.11131,"lng":126.89923,"addr":"광주광역시 남구 화산로 32","isOpenAtNight":"N","hasBell":"N","male":1,"female":3,"type":"개방화장실"},{"id":"202436100000100028","nm":"제석산대각사화장실","lat":35.12311,"lng":126.91383,"addr":"광주광역시 남구 제석로80번안길 33","isOpenAtNight":"N","hasBell":"Y","male":1,"female":1,"type":"공중화장실"},{"id":"202436100000100195","nm":"수일통닭","lat":35.12681,"lng":126.89682,"addr":"광주광역시 남구 서문대로751번길 7-6","isOpenAtNight":"N","hasBell":"N","male":1,"female":1,"type":"개방화장실"},{"id":"202436100000100114","nm":"SK월드컵주유소","lat":35.14295,"lng":126.8905,"addr":"광주광역시 남구 금화로 412","isOpenAtNight":"N","hasBell":"N","male":2,"female":2,"type":"개방화장실"},{"id":"202436100000100177","nm":"다사랑치킨피자","lat":35.12631,"lng":126.89689,"addr":"광주광역시 남구 서문대로749번길 8","isOpenAtNight":"N","hasBell":"N","male":1,"female":1,"type":"개방화장실"},{"id":"202436100000100113","nm":"효천산업주유소","lat":35.09786,"lng":126.87672,"addr":"광주광역시 남구 서문대로 329","isOpenAtNight":"N","hasBell":"N","male":2,"female":2,"type":"개방화장실"},{"id":"202436100000100052","nm":"주월2동행정복지센터","lat":35.13468,"lng":126.89425,"addr":"광주광역시 남구 군분로13번길 12","isOpenAtNight":"N","hasBell":"N","male":2,"female":2,"type":"개방화장실"},{"id":"202436100000100088","nm":"광주광역시 시립수목원 A동","lat":35.08856,"lng":126.88165,"addr":"광주광역시 남구 서문대로 236번길 50","isOpenAtNight":"N","hasBell":"Y","male":3,"female":7,"type":"개방화장실"},{"id":"202436100000100080","nm":"사직공원 사직탑","lat":35.14253,"lng":126.91214,"addr":"광주광역시 남구 사직길 49","isOpenAtNight":"N","hasBell":"N","male":0,"female":2,"type":"개방화장실"},{"id":"202436100000100044","nm":"봉선2동행정복지센터","lat":35.12346,"lng":126.91373,"addr":"광주광역시 남구 봉선중앙로26번길 10","isOpenAtNight":"N","hasBell":"N","male":1,"female":1,"type":"개방화장실"},{"id":"202436100000100070","nm":"청소년도서관","lat":35.12337,"lng":126.90763,"addr":"광주광역시 남구 제석로 100","isOpenAtNight":"N","hasBell":"N","male":2,"female":3,"type":"개방화장실"},{"id":"202436100000100013","nm":"봉선1어린이공원화장실","lat":35.12995,"lng":126.90921,"addr":"광주광역시 남구 봉선1로37번길 25","isOpenAtNight":"N","hasBell":"Y","male":1,"female":1,"type":"공중화장실"},{"id":"202436100000100191","nm":"한빛교회(1F)","lat":35.10642,"lng":126.90975,"addr":"광주광역시 남구 노대실로41번길 31","isOpenAtNight":"N","hasBell":"N","male":4,"female":5,"type":"개방화장실"},{"id":"202436100000100157","nm":"타이어프로진월점","lat":35.11726,"lng":126.89807,"addr":"광주광역시 남구 서문대로 645","isOpenAtNight":"N","hasBell":"N","male":0,"female":0,"type":"개방화장실"},{"id":"202436100000100099","nm":"풍암주유소","lat":35.13266,"lng":126.89348,"addr":"광주광역시 남구 회재로1208","isOpenAtNight":"N","hasBell":"N","male":2,"female":2,"type":"개방화장실"},{"id":"202436100000100111","nm":"송암공단주유소","lat":35.10943,"lng":126.87724,"addr":"광주광역시 남구 송암로 49","isOpenAtNight":"N","hasBell":"N","male":2,"female":2,"type":"개방화장실"},{"id":"202436100000100048","nm":"월산5동행정복지센터","lat":35.14086,"lng":126.89296,"addr":"광주광역시 남구 군분로82번길 14","isOpenAtNight":"N","hasBell":"N","male":0,"female":2,"type":"개방화장실"},{"id":"202436100000100098","nm":"캡틴월산주유소","lat":35.14186,"lng":126.89372,"addr":"광주광역시 남구 대남대로336","isOpenAtNight":"N","hasBell":"N","male":1,"female":1,"type":"개방화장실"},{"id":"202436100000100032","nm":"쟁이마당어린이공원","lat":35.10591,"lng":126.90963,"addr":"광주광역시 남구 노대동 834","isOpenAtNight":"N","hasBell":"Y","male":0,"female":2,"type":"공중화장실"},{"id":"202436100000100079","nm":"사직공원 다목적운동장","lat":35.14253,"lng":126.91214,"addr":"광주광역시 남구 사직길 49","isOpenAtNight":"N","hasBell":"N","male":2,"female":3,"type":"개방화장실"},{"id":"202436100000100059","nm":"효덕지구대","lat":35.11206,"lng":126.89972,"addr":"광주광역시 남구 화산로 27","isOpenAtNight":"N","hasBell":"N","male":1,"female":1,"type":"개방화장실"},{"id":"202436100000100040","nm":"양림동행정복지센터","lat":35.14054,"lng":126.91644,"addr":"광주광역시 남구 백서로 94","isOpenAtNight":"N","hasBell":"N","male":5,"female":9,"type":"개방화장실"},{"id":"202436100000100134","nm":"삼성연합의원","lat":35.13137,"lng":126.92481,"addr":"광주광역시 남구 천변좌로 566","isOpenAtNight":"N","hasBell":"N","male":1,"female":1,"type":"개방화장실"},{"id":"202436100000100056","nm":"양림파출소","lat":35.14296,"lng":126.91524,"addr":"광주광역시 남구 천변좌로 410","isOpenAtNight":"N","hasBell":"N","male":0,"female":0,"type":"개방화장실"},{"id":"202436100000100116","nm":"빛고을self주유소","lat":35.08011,"lng":126.86042,"addr":"광주광역시 남구 서문대로 42","isOpenAtNight":"N","hasBell":"N","male":2,"female":2,"type":"개방화장실"},{"id":"202436100000100192","nm":"계동치킨","lat":35.13787,"lng":126.91448,"addr":"광주광역시 남구 백서로 56","isOpenAtNight":"N","hasBell":"N","male":0,"female":0,"type":"개방화장실"},{"id":"202436100000100038","nm":"승용교","lat":35.06684,"lng":126.7762,"addr":"광주광역시 남구 양촌동 564-1","isOpenAtNight":"N","hasBell":"Y","male":0,"female":2,"type":"공중화장실"},{"id":"202436100000100200","nm":"진월겨자씨교회","lat":35.11248,"lng":126.89872,"addr":"광주광역시 남구 화산로17번길 5","isOpenAtNight":"N","hasBell":"N","male":1,"female":1,"type":"개방화장실"},{"id":"202436100000100143","nm":"광주생명샘교회","lat":35.13449,"lng":126.91083,"addr":"광주광역시 남구 백양로 81","isOpenAtNight":"N","hasBell":"N","male":1,"female":1,"type":"개방화장실"},{"id":"202436100000100082","nm":"사직공원 유아숲","lat":35.14253,"lng":126.91214,"addr":"광주광역시 남구 사직길 49","isOpenAtNight":"N","hasBell":"N","male":1,"female":0,"type":"개방화장실"},{"id":"202436100000100035","nm":"승촌공원 축구장 화장실","lat":35.06418,"lng":126.75729,"addr":"광주광역시 남구 승촌동 602","isOpenAtNight":"N","hasBell":"Y","male":0,"female":2,"type":"공중화장실"},{"id":"202436100000100063","nm":"푸른길도서관","lat":35.12917,"lng":126.89526,"addr":"광주광역시 남구 금당로 140","isOpenAtNight":"N","hasBell":"N","male":1,"female":2,"type":"개방화장실"},{"id":"202436100000100187","nm":"워시존 셀프세차장","lat":35.13316,"lng":126.89454,"addr":"광주광역시 남구 회재로1218번길 3","isOpenAtNight":"N","hasBell":"N","male":1,"female":1,"type":"개방화장실"},{"id":"202436100000100165","nm":"현대자동차(월산남부점)","lat":35.14244,"lng":126.89949,"addr":"광주광역시 남구 월산로 47-2","isOpenAtNight":"N","hasBell":"N","male":1,"female":1,"type":"개방화장실"},{"id":"202436100000100037","nm":"캠핑장2 화장실","lat":35.06412,"lng":126.75558,"addr":"광주광역시 남구 승촌동 596","isOpenAtNight":"N","hasBell":"Y","male":0,"female":2,"type":"공중화장실"},{"id":"202436100000100182","nm":"어메이징 아프리카","lat":35.14235,"lng":126.91591,"addr":"광주광역시 남구 천변좌로 420","isOpenAtNight":"N","hasBell":"N","male":1,"female":1,"type":"개방화장실"},{"id":"202436100000100031","nm":"지석제공원","lat":35.08815,"lng":126.82974,"addr":"광주광역시 남구 압촌동 503","isOpenAtNight":"N","hasBell":"Y","male":1,"female":3,"type":"공중화장실"},{"id":"202436100000100069","nm":"통합·거점경로당","lat":35.13032,"lng":126.89526,"addr":"광주광역시 남구 회서로 37","isOpenAtNight":"N","hasBell":"N","male":2,"female":2,"type":"개방화장실"},{"id":"202436100000100201","nm":"대성아크릴","lat":35.14529,"lng":126.9124,"addr":"광주광역시 남구 천변좌로374","isOpenAtNight":"N","hasBell":"N","male":1,"female":1,"type":"개방화장실"},{"id":"202436100000100167","nm":"타이어백화점","lat":35.10788,"lng":126.8862,"addr":"광주광역시 남구 서문대로 482","isOpenAtNight":"N","hasBell":"N","male":0,"female":0,"type":"개방화장실"},{"id":"202436100000100203","nm":"와이마트 진월점","lat":35.12093,"lng":126.8957,"addr":"광주광역시 남구 금당로43","isOpenAtNight":"N","hasBell":"N","male":1,"female":1,"type":"개방화장실"},{"id":"202436100000100055","nm":"대촌동행정복지센터","lat":35.08122,"lng":126.8337,"addr":"광주광역시 남구 포충로 591","isOpenAtNight":"N","hasBell":"N","male":2,"female":4,"type":"개방화장실"},{"id":"202436100000100077","nm":"광주공원 어린이 놀이터","lat":35.14698,"lng":126.90911,"addr":"광주광역시 남구 중앙로 107번길 15","isOpenAtNight":"N","hasBell":"N","male":0,"female":1,"type":"개방화장실"},{"id":"202436100000100096","nm":"새론주유소","lat":35.14256,"lng":126.89229,"addr":"광주광역시 남구 대남대로347","isOpenAtNight":"N","hasBell":"N","male":1,"female":1,"type":"개방화장실"},{"id":"202436100000100126","nm":"광주향교 유림회관","lat":35.14598,"lng":126.90903,"addr":"광주광역시 남구 중앙로107번길 3","isOpenAtNight":"N","hasBell":"N","male":1,"female":2,"type":"개방화장실"},{"id":"202436100000100057","nm":"방림지구대","lat":35.13298,"lng":126.90866,"addr":"광주광역시 남구 대남대로 149번길 8","isOpenAtNight":"N","hasBell":"N","male":1,"female":1,"type":"개방화장실"},{"id":"202436100000100115","nm":"미래주유소","lat":35.14151,"lng":126.8875,"addr":"광주광역시 남구 금화로 380","isOpenAtNight":"N","hasBell":"N","male":2,"female":2,"type":"개방화장실"},{"id":"202436100000100180","nm":"참숯구이 고기세상","lat":35.12783,"lng":126.91297,"addr":"광주광역시 남구 봉선1로 72","isOpenAtNight":"N","hasBell":"N","male":0,"female":0,"type":"개방화장실"},{"id":"202436100000100205","nm":"뚜레쥬르 광주진월점(동일빌딩)","lat":35.13009,"lng":126.89826,"addr":"광주광역시 남구 서문대로 793","isOpenAtNight":"N","hasBell":"N","male":1,"female":2,"type":"개방화장실"},{"id":"202436100000100067","nm":"남구청","lat":35.13287,"lng":126.90246,"addr":"광주광역시 남구 봉선로 1","isOpenAtNight":"N","hasBell":"N","male":22,"female":47,"type":"개방화장실"},{"id":"202436100000100174","nm":"LG전자 베스트샵 진월점","lat":35.12339,"lng":126.89883,"addr":"광주광역시 남구 서문대로 718","isOpenAtNight":"N","hasBell":"N","male":2,"female":2,"type":"개방화장실"},{"id":"202436100000100091","nm":"봉선시장 공영주차장 화장실","lat":35.12849,"lng":126.91011,"addr":"광주광역시 남구 봉선1로47번길 7","isOpenAtNight":"N","hasBell":"Y","male":3,"female":3,"type":"개방화장실"},{"id":"202436100000100196","nm":"대촌중앙교회","lat":35.08348,"lng":126.83472,"addr":"광주광역시 남구 하지석길 21-5","isOpenAtNight":"N","hasBell":"N","male":1,"female":2,"type":"개방화장실"},{"id":"202436100000100210","nm":"빛고을공예창작촌","lat":35.08557,"lng":126.86603,"addr":"광주광역시 남구 포충로 937","isOpenAtNight":"N","hasBell":"N","male":3,"female":5,"type":"개방화장실"},{"id":"202436100000100148","nm":"샘신용협동조합","lat":35.13317,"lng":126.91753,"addr":"광주광역시 남구 용대로 189","isOpenAtNight":"N","hasBell":"N","male":0,"female":0,"type":"개방화장실"},{"id":"202436100000100058","nm":"주월파출소","lat":35.13395,"lng":126.89348,"addr":"광주광역시 남구 회재로1217번길 7","isOpenAtNight":"N","hasBell":"N","male":1,"female":1,"type":"개방화장실"},{"id":"202436100000100076","nm":"광주공원 매점","lat":35.14698,"lng":126.90911,"addr":"광주광역시 남구 중앙로 107번길 15","isOpenAtNight":"N","hasBell":"N","male":2,"female":3,"type":"개방화장실"},{"id":"202436100000100158","nm":"유천 타이어","lat":35.10831,"lng":126.8853,"addr":"광주광역시 남구 서문대로 477","isOpenAtNight":"N","hasBell":"N","male":0,"female":0,"type":"개방화장실"},{"id":"202436100000100181","nm":"사직세탁소","lat":35.13802,"lng":126.91434,"addr":"광주광역시 남구 백서로 55","isOpenAtNight":"N","hasBell":"N","male":0,"female":0,"type":"개방화장실"},{"id":"202436100000100139","nm":"대한예수교장로회광주은진교회","lat":35.13165,"lng":126.89619,"addr":"광주광역시 남구 대남대로223번길 48","isOpenAtNight":"N","hasBell":"N","male":1,"female":1,"type":"개방화장실"},{"id":"202436100000100071","nm":"남구자원봉사센터","lat":35.13392,"lng":126.90192,"addr":"광주광역시 남구 독립로 2","isOpenAtNight":"N","hasBell":"N","male":0,"female":0,"type":"개방화장실"},{"id":"202436100000100206","nm":"반다비 체육센터","lat":35.13895,"lng":126.89884,"addr":"광주광역시 남구 대남대로308번안길20","isOpenAtNight":"N","hasBell":"N","male":3,"female":6,"type":"개방화장실"},{"id":"202436100000100092","nm":"독립로주유소","lat":35.14622,"lng":126.90343,"addr":"광주광역시 남구 독립로 143","isOpenAtNight":"N","hasBell":"N","male":1,"female":1,"type":"개방화장실"},{"id":"202436100000100164","nm":"무등카클리닉","lat":35.13708,"lng":126.90724,"addr":"광주광역시 남구 백운로 39번길 1","isOpenAtNight":"N","hasBell":"N","male":0,"female":0,"type":"개방화장실"},{"id":"202436100000100050","nm":"백운2동행정복지센터","lat":35.13612,"lng":126.90233,"addr":"광주광역시 남구 진다리로6번길 9","isOpenAtNight":"N","hasBell":"N","male":1,"female":2,"type":"개방화장실"},{"id":"202436100000100142","nm":"주향교회","lat":35.12806,"lng":126.91901,"addr":"광주광역시 남구 오방로 33-9","isOpenAtNight":"N","hasBell":"N","male":1,"female":1,"type":"개방화장실"},{"id":"202436100000100169","nm":"하늘자동차서비스","lat":35.12877,"lng":126.91926,"addr":"광주광역시 남구 오방로 41","isOpenAtNight":"N","hasBell":"N","male":0,"female":0,"type":"개방화장실"},{"id":"202436100000100046","nm":"월산동행정복지센터","lat":35.14751,"lng":126.90261,"addr":"광주광역시 남구 덕림2길 3","isOpenAtNight":"N","hasBell":"N","male":2,"female":2,"type":"개방화장실"},{"id":"202436100000100162","nm":"애니카랜드(봉선점)","lat":35.12854,"lng":126.9034,"addr":"광주광역시 남구 봉선로52번길 10","isOpenAtNight":"N","hasBell":"N","male":0,"female":0,"type":"개방화장실"},{"id":"202436100000100106","nm":"대동주유소","lat":35.13355,"lng":126.90824,"addr":"광주광역시 남구 대남대로 153","isOpenAtNight":"N","hasBell":"N","male":2,"female":2,"type":"개방화장실"},{"id":"202436100000100054","nm":"송암동행정복지센터","lat":35.11158,"lng":126.87723,"addr":"광주광역시 남구 송암로 66","isOpenAtNight":"N","hasBell":"N","male":2,"female":2,"type":"개방화장실"},{"id":"202436100000100102","nm":"㈜대창석유직영 남광주주유소","lat":35.13043,"lng":126.89863,"addr":"광주광역시 남구 서문대로799","isOpenAtNight":"N","hasBell":"N","male":2,"female":1,"type":"개방화장실"},{"id":"202436100000100118","nm":"(주)화력주유소","lat":35.09335,"lng":126.82646,"addr":"광주광역시 남구 회재로 338","isOpenAtNight":"N","hasBell":"N","male":2,"female":2,"type":"개방화장실"},{"id":"202436100000100094","nm":"마트몰대남로주유소","lat":35.14641,"lng":126.88935,"addr":"광주광역시 남구 대남대로399","isOpenAtNight":"N","hasBell":"N","male":0,"female":0,"type":"개방화장실"},{"id":"202436100000100147","nm":"늘푸른자동차공업사","lat":35.13387,"lng":126.91736,"addr":"광주광역시 남구 용대로 199","isOpenAtNight":"N","hasBell":"N","male":0,"female":0,"type":"개방화장실"},{"id":"202436100000100171","nm":"윤가네 나주곰탕","lat":35.13128,"lng":126.92431,"addr":"광주광역시 남구 천변좌로566번길 5","isOpenAtNight":"N","hasBell":"N","male":0,"female":0,"type":"개방화장실"},{"id":"202436100000100041","nm":"방림1동행정복지센터","lat":35.13437,"lng":126.91829,"addr":"광주광역시 남구 오방로 101-2","isOpenAtNight":"N","hasBell":"N","male":0,"female":2,"type":"개방화장실"},{"id":"202436100000100023","nm":"물빛근린공원화장실","lat":35.10402,"lng":126.90487,"addr":"광주광역시 남구 효우로 107","isOpenAtNight":"N","hasBell":"Y","male":3,"female":5,"type":"공중화장실"},{"id":"202436100000100152","nm":"우정자원","lat":35.1318,"lng":126.89315,"addr":"광주광역시 남구 회서로 9","isOpenAtNight":"N","hasBell":"N","male":0,"female":0,"type":"개방화장실"},{"id":"202436100000100030","nm":"고싸움놀이 전수교육관","lat":35.06971,"lng":126.83718,"addr":"광주광역시 남구 고싸움로 2","isOpenAtNight":"N","hasBell":"Y","male":5,"female":8,"type":"공중화장실"},{"id":"202436100000100144","nm":"이마트","lat":35.12241,"lng":126.91603,"addr":"광주광역시 남구 봉선로 198","isOpenAtNight":"N","hasBell":"N","male":2,"female":6,"type":"개방화장실"},{"id":"202436100000100090","nm":"광주광역시 시립수목원 C동","lat":35.08994,"lng":126.87831,"addr":"광주광역시 남구 서문대로236번길 7","isOpenAtNight":"N","hasBell":"Y","male":3,"female":7,"type":"개방화장실"},{"id":"202436100000100049","nm":"백운1동행정복지센터","lat":35.13832,"lng":126.9039,"addr":"광주광역시 남구 독립로54번길 20","isOpenAtNight":"N","hasBell":"N","male":1,"female":1,"type":"개방화장실"},{"id":"202436100000100208","nm":"팜스로컬푸드마켓진월점","lat":35.12281,"lng":126.89899,"addr":"광주광역시 남구 서문대로 706","isOpenAtNight":"N","hasBell":"N","male":2,"female":3,"type":"개방화장실"},{"id":"202436100000100104","nm":"21세기주유소","lat":35.12162,"lng":126.89824,"addr":"광주광역시 남구 서문대로 697","isOpenAtNight":"N","hasBell":"N","male":2,"female":2,"type":"개방화장실"},{"id":"202436100000100021","nm":"월산근린1화장실","lat":35.14191,"lng":126.89887,"addr":"광주광역시 남구 월산로 37","isOpenAtNight":"N","hasBell":"Y","male":1,"female":4,"type":"공중화장실"},{"id":"202436100000100095","nm":"㈜온누리주유소","lat":35.14325,"lng":126.88971,"addr":"광주광역시 남구 금화로407","isOpenAtNight":"N","hasBell":"N","male":2,"female":2,"type":"개방화장실"},{"id":"202436100000100107","nm":"(주)송암주유소","lat":35.10843,"lng":126.88577,"addr":"광주광역시 남구 서문대로 483","isOpenAtNight":"N","hasBell":"N","male":1,"female":1,"type":"개방화장실"},{"id":"202436100000100105","nm":"광주대주유소","lat":35.11071,"lng":126.89467,"addr":"광주광역시 남구 서문대로 566","isOpenAtNight":"N","hasBell":"N","male":1,"female":2,"type":"개방화장실"},{"id":"202436100000100154","nm":"현대자동차 블루핸즈","lat":35.11444,"lng":126.89661,"addr":"광주광역시 남구 서문대로627번안길 12","isOpenAtNight":"N","hasBell":"N","male":1,"female":1,"type":"개방화장실"},{"id":"202436100000100197","nm":"엔젤빌딩","lat":35.12276,"lng":126.91173,"addr":"광주광역시 남구 봉선로 152","isOpenAtNight":"N","hasBell":"N","male":20,"female":20,"type":"개방화장실"},{"id":"202436100000100189","nm":"남구노인복지관","lat":35.14173,"lng":126.89726,"addr":"광주광역시 남구 대남대로308번길 32","isOpenAtNight":"N","hasBell":"N","male":2,"female":2,"type":"개방화장실"},{"id":"202436100000100207","nm":"유네스코화장실","lat":35.14745,"lng":126.91031,"addr":"광주광역시 남구 천변좌로344","isOpenAtNight":"N","hasBell":"Y","male":2,"female":3,"type":"개방화장실"},{"id":"202436100000100117","nm":"대촌상주유소","lat":35.08184,"lng":126.83118,"addr":"광주광역시 남구 회재로 206","isOpenAtNight":"N","hasBell":"N","male":0,"female":0,"type":"개방화장실"},{"id":"202436100000100027","nm":"푸른길근린공원화장실","lat":35.12832,"lng":126.89642,"addr":"광주광역시 남구 주월동 941-205","isOpenAtNight":"N","hasBell":"Y","male":1,"female":3,"type":"공중화장실"},{"id":"202436100000100123","nm":"남광주LPG충전소","lat":35.10883,"lng":126.88668,"addr":"광주광역시 남구 서문대로 497 외2","isOpenAtNight":"N","hasBell":"N","male":1,"female":1,"type":"개방화장실"},{"id":"202436100000100190","nm":"남구장애인종합복지관","lat":35.14126,"lng":126.89993,"addr":"광주광역시 남구 월산로 33","isOpenAtNight":"N","hasBell":"N","male":2,"female":2,"type":"개방화장실"},{"id":"202436100000100156","nm":"㈜수미프라자(삼성스토어)","lat":35.10543,"lng":126.88403,"addr":"광주광역시 남구 서문대로 377","isOpenAtNight":"N","hasBell":"N","male":2,"female":4,"type":"개방화장실"},{"id":"202436100000100155","nm":"부지런한 홈마트","lat":35.11244,"lng":126.90063,"addr":"광주광역시 남구 화산로 35","isOpenAtNight":"N","hasBell":"N","male":1,"female":1,"type":"개방화장실"},{"id":"202436100000100053","nm":"진월동행정복지센터","lat":35.11237,"lng":126.89853,"addr":"광주광역시 남구 화산로 15","isOpenAtNight":"N","hasBell":"N","male":2,"female":4,"type":"개방화장실"},{"id":"202436100000100016","nm":"방죽어린이공원화장실","lat":35.12311,"lng":126.91383,"addr":"광주광역시 남구 봉선중앙로 25","isOpenAtNight":"N","hasBell":"Y","male":1,"female":2,"type":"공중화장실"},{"id":"202436100000100062","nm":"백운지구대","lat":35.14111,"lng":126.90057,"addr":"광주광역시 남구 월산로 30","isOpenAtNight":"N","hasBell":"N","male":0,"female":0,"type":"개방화장실"},{"id":"202436100000100175","nm":"광주도성교회","lat":35.12787,"lng":126.8928,"addr":"광주광역시 남구 회재로1186번길 45","isOpenAtNight":"N","hasBell":"N","male":2,"female":3,"type":"개방화장실"},{"id":"202436100000100209","nm":"어비슨기념관","lat":35.13796,"lng":126.9152,"addr":"광주광역시 남구 백서로 66-1","isOpenAtNight":"N","hasBell":"N","male":1,"female":2,"type":"개방화장실"},{"id":"202436100000100051","nm":"주월1동행정복지센터","lat":35.13195,"lng":126.89334,"addr":"광주광역시 남구 회서로21번가길 13","isOpenAtNight":"N","hasBell":"N","male":1,"female":2,"type":"개방화장실"},{"id":"202436100000100130","nm":"양지종합사회복지관","lat":35.13661,"lng":126.91537,"addr":"광주광역시 남구 제중로 24-10","isOpenAtNight":"N","hasBell":"N","male":3,"female":3,"type":"개방화장실"},{"id":"202436100000100176","nm":"진월점 기아오토큐","lat":35.12482,"lng":126.89731,"addr":"광주광역시 남구 서문대로 737-3","isOpenAtNight":"N","hasBell":"N","male":1,"female":1,"type":"개방화장실"},{"id":"202436100000100133","nm":"한일병원(1F)","lat":35.13335,"lng":126.91035,"addr":"광주광역시 남구 봉선중앙로 137","isOpenAtNight":"N","hasBell":"N","male":5,"female":5,"type":"개방화장실"},{"id":"202436100000100194","nm":"행복가득 효천주유소","lat":35.08053,"lng":126.85933,"addr":"광주광역시 남구 서문대로 37","isOpenAtNight":"N","hasBell":"N","male":2,"female":2,"type":"개방화장실"},{"id":"202436100000100103","nm":"삼거리주유소","lat":35.12925,"lng":126.89744,"addr":"광주광역시 남구 서문대로781","isOpenAtNight":"N","hasBell":"N","male":1,"female":1,"type":"개방화장실"},{"id":"202436100000100064","nm":"남구청소년수련관","lat":35.12205,"lng":126.91753,"addr":"광주광역시 남구 봉선로 208","isOpenAtNight":"N","hasBell":"N","male":3,"female":2,"type":"개방화장실"},{"id":"202436100000100204","nm":"도도스피드 세차장","lat":35.1074,"lng":126.87824,"addr":"광주광역시 남구 효천3로 163","isOpenAtNight":"N","hasBell":"N","male":1,"female":1,"type":"개방화장실"},{"id":"202436100000100125","nm":"광주대학교 호심관 (4층)","lat":35.10699,"lng":126.89554,"addr":"광주광역시 남구 효덕로 277","isOpenAtNight":"N","hasBell":"N","male":8,"female":10,"type":"개방화장실"},{"id":"202436100000100146","nm":"송원카센터","lat":35.13415,"lng":126.91479,"addr":"광주광역시 남구 대남대로 93","isOpenAtNight":"N","hasBell":"N","male":0,"female":0,"type":"개방화장실"},{"id":"202436100000100166","nm":"코끼리 카서비스","lat":35.13252,"lng":126.91045,"addr":"광주광역시 남구 봉선중앙로 127","isOpenAtNight":"N","hasBell":"N","male":1,"female":1,"type":"개방화장실"},{"id":"202436100000100061","nm":"광주남부경찰서","lat":35.12326,"lng":126.9213,"addr":"광주광역시 남구 용대로74번안길 9-5","isOpenAtNight":"N","hasBell":"N","male":2,"female":2,"type":"개방화장실"}]}